[
  {
    "id": 233590,
    "ordinalNumber": "1",
    "facilityName": "PRZYCHODNIA \"LEKARZ DOMOWY\" PIESZKO SPÓŁKA JAWNA",
    "terc": "0201011",
    "address": "DOLNE MŁYNY 21A",
    "zipCode": "59-700",
    "voivodeship": "DOLNOŚLĄSKIE",
    "county": "bolesławiecki",
    "community": "Bolesławiec",
    "place": "BOLESŁAWIEC",
    "lon": "15.5566",
    "lat": "51.265418"
  },
  {
    "id": 233591,
    "ordinalNumber": "2",
    "facilityName": "PUNKT SZCZEPIEŃ",
    "terc": "0201011",
    "address": "KAROLA MIARKI 29",
    "zipCode": "59-700",
    "voivodeship": "DOLNOŚLĄSKIE",
    "county": "bolesławiecki",
    "community": "Bolesławiec",
    "place": "BOLESŁAWIEC",
    "lon": "15.569324",
    "lat": "51.260043"
  },
  {
    "id": 233592,
    "ordinalNumber": "3",
    "facilityName": "ELŻBIETA RYBIŃSKA-SKÓRA NZOZ PRAKTYKA LEKARZA RODZINNEGO LEK. MED. ELŻBIETA RYBIŃSKA-SKÓRA",
    "terc": "0201011",
    "address": "UL. STEFANA STARZYŃSKIEGO 6D",
    "zipCode": "59-700",
    "voivodeship": "DOLNOŚLĄSKIE",
    "county": "bolesławiecki",
    "community": "Bolesławiec",
    "place": "BOLESŁAWIEC",
    "lon": "15.5769416",
    "lat": "51.2549254"
  },
  {
    "id": 233593,
    "ordinalNumber": "4",
    "facilityName": "ZESPÓŁ OPIEKI ZDROWOTNEJ W BOLESŁAWCU",
    "terc": "0201011",
    "address": "JELENIOGÓRSKA 4",
    "zipCode": "59-700",
    "voivodeship": "DOLNOŚLĄSKIE",
    "county": "bolesławiecki",
    "community": "Bolesławiec",
    "place": "BOLESŁAWIEC",
    "lon": "15.566941",
    "lat": "51.254493"
  },
  {
    "id": 233594,
    "ordinalNumber": "5",
    "facilityName": "PRZYCHODNIA LEKARSKA \"TWÓJ LEKARZ\"",
    "terc": "0201011",
    "address": "STANISŁAWA STASZICA 27",
    "zipCode": "59-700",
    "voivodeship": "DOLNOŚLĄSKIE",
    "county": "bolesławiecki",
    "community": "Bolesławiec",
    "place": "BOLESŁAWIEC",
    "lon": "15.561402",
    "lat": "51.270494"
  },
  {
    "id": 233595,
    "ordinalNumber": "6",
    "facilityName": "FRANCISZEK HERTMAN NZOZ PRAKTYKA LEKARZA RODZINNEGO LEK. MED. FRANCISZEK HERTMAN",
    "terc": "0201011",
    "address": "UL. STEFANA STARZYŃSKIEGO 6D",
    "zipCode": "59-700",
    "voivodeship": "DOLNOŚLĄSKIE",
    "county": "bolesławiecki",
    "community": "Bolesławiec",
    "place": "BOLESŁAWIEC",
    "lon": "15.5769416",
    "lat": "51.2549254"
  },
  {
    "id": 233596,
    "ordinalNumber": "7",
    "facilityName": "CENTRUM SPECJALISTYCZNE BIOMED 2 BOROWSCY SPÓŁKA JAWNA",
    "terc": "0201011",
    "address": "KOMUNY PARYSKIEJ 14",
    "zipCode": "59-700",
    "voivodeship": "DOLNOŚLĄSKIE",
    "county": "bolesławiecki",
    "community": "Bolesławiec",
    "place": "BOLESŁAWIEC",
    "lon": "15.564222",
    "lat": "51.258798"
  },
  {
    "id": 233597,
    "ordinalNumber": "8",
    "facilityName": "GMINNY OŚRODEK ZDROWIA",
    "terc": "0201032",
    "address": "SZKOLNA 18A",
    "zipCode": "59-706",
    "voivodeship": "DOLNOŚLĄSKIE",
    "county": "bolesławiecki",
    "community": "Gromadka",
    "place": "GROMADKA",
    "lon": "15.763122",
    "lat": "51.356952"
  },
  {
    "id": 233598,
    "ordinalNumber": "9",
    "facilityName": "PRZYCHODNIA GMINNA NOWOGRODŹCU",
    "terc": "0201044",
    "address": "ASNYKA 55",
    "zipCode": "59-730",
    "voivodeship": "DOLNOŚLĄSKIE",
    "county": "bolesławiecki",
    "community": "Nowogrodziec",
    "place": "NOWOGRODZIEC",
    "lon": "15.399822",
    "lat": "51.19263"
  },
  {
    "id": 233599,
    "ordinalNumber": "10",
    "facilityName": "WIEJSKI OŚRODEK ZDROWIA W ZEBRZYDOWEJ",
    "terc": "0201045",
    "address": "ZEBRZYDOWA 130",
    "zipCode": "59-730",
    "voivodeship": "DOLNOŚLĄSKIE",
    "county": "bolesławiecki",
    "community": "Nowogrodziec",
    "place": "ZEBRZYDOWA",
    "lon": "15.3932338",
    "lat": "51.2513449"
  },
  {
    "id": 233600,
    "ordinalNumber": "11",
    "facilityName": "PRZYCHODNIA \"SKOMED\" MARZENA KALIWODA-FUCHS SPÓŁKA JAWNA",
    "terc": "0201052",
    "address": "ZACISZE 1",
    "zipCode": "59-724",
    "voivodeship": "DOLNOŚLĄSKIE",
    "county": "bolesławiecki",
    "community": "Osiecznica",
    "place": "OSIECZNICA",
    "lon": "15.419406",
    "lat": "51.324567"
  },
  {
    "id": 233601,
    "ordinalNumber": "12",
    "facilityName": "PRZYCHODNIA \"LEKMED\" JERZY HAJDUKIEWICZ",
    "terc": "0201062",
    "address": "WARTA BOLESŁAWIECKA 29A/2",
    "zipCode": "59-720",
    "voivodeship": "DOLNOŚLĄSKIE",
    "county": "bolesławiecki",
    "community": "Warta Bolesławiecka",
    "place": "WARTA BOLESŁAWIECKA",
    "lon": "15.669291",
    "lat": "51.23172"
  },
  {
    "id": 233602,
    "ordinalNumber": "13",
    "facilityName": "PUNKT SZCZEPIEŃ",
    "terc": "0202011",
    "address": "JANA III SOBIESKIEGO 19A",
    "zipCode": "58-260",
    "voivodeship": "DOLNOŚLĄSKIE",
    "county": "dzierżoniowski",
    "community": "Bielawa",
    "place": "BIELAWA",
    "lon": "16.624065",
    "lat": "50.682856"
  },
  {
    "id": 233603,
    "ordinalNumber": "14",
    "facilityName": "GABINET SZCZEPIEŃ",
    "terc": "0202011",
    "address": "ROTM.W.PILECKIEGO 10A",
    "zipCode": "58-260",
    "voivodeship": "DOLNOŚLĄSKIE",
    "county": "dzierżoniowski",
    "community": "Bielawa",
    "place": "BIELAWA",
    "lon": "16.6129016",
    "lat": "50.6817151"
  },
  {
    "id": 233604,
    "ordinalNumber": "15",
    "facilityName": "PUNKT SZCZEPIEŃ",
    "terc": "0202011",
    "address": "WOLNOŚCI 148",
    "zipCode": "58-260",
    "voivodeship": "DOLNOŚLĄSKIE",
    "county": "dzierżoniowski",
    "community": "Bielawa",
    "place": "BIELAWA",
    "lon": "16.6143748",
    "lat": "50.6855229"
  },
  {
    "id": 233605,
    "ordinalNumber": "16",
    "facilityName": "GABINET SZCZEPIEŃ",
    "terc": "0202011",
    "address": "ŻEROMSKIEGO 45",
    "zipCode": "58-260",
    "voivodeship": "DOLNOŚLĄSKIE",
    "county": "dzierżoniowski",
    "community": "Bielawa",
    "place": "BIELAWA",
    "lon": "16.622348",
    "lat": "50.689972"
  },
  {
    "id": 233606,
    "ordinalNumber": "17",
    "facilityName": "NZOZ KINESIS",
    "terc": "0202011",
    "address": "PADEREWSKIEGO 2",
    "zipCode": "58-260",
    "voivodeship": "DOLNOŚLĄSKIE",
    "county": "dzierżoniowski",
    "community": "Bielawa",
    "place": "BIELAWA",
    "lon": "16.621539",
    "lat": "50.681378"
  },
  {
    "id": 233607,
    "ordinalNumber": "18",
    "facilityName": "BARTOSZ SUCHOWIAK",
    "terc": "0202011",
    "address": "IGNACEGO PADEREWSKIEGO 5",
    "zipCode": "58-260",
    "voivodeship": "DOLNOŚLĄSKIE",
    "county": "dzierżoniowski",
    "community": "Bielawa",
    "place": "BIELAWA",
    "lon": "16.621225",
    "lat": "50.681256"
  },
  {
    "id": 233608,
    "ordinalNumber": "19",
    "facilityName": "PORADNIA (GABINET) LEKARZA PODSTAWOWEJ OPIEKI ZDROWOTNEJ",
    "terc": "0202021",
    "address": "STASZICA 27",
    "zipCode": "58-200",
    "voivodeship": "DOLNOŚLĄSKIE",
    "county": "dzierżoniowski",
    "community": "Dzierżoniów",
    "place": "DZIERŻONIÓW",
    "lon": "16.656611",
    "lat": "50.720247"
  },
  {
    "id": 233609,
    "ordinalNumber": "20",
    "facilityName": "NIEPUBLICZNY ZAKŁAD OPIEKI ZDROWOTNEJ \"SAL-MED\"",
    "terc": "0202021",
    "address": "ŚWIDNICKA 37A",
    "zipCode": "58-200",
    "voivodeship": "DOLNOŚLĄSKIE",
    "county": "dzierżoniowski",
    "community": "Dzierżoniów",
    "place": "DZIERŻONIÓW",
    "lon": "16.64341",
    "lat": "50.732296"
  },
  {
    "id": 233610,
    "ordinalNumber": "21",
    "facilityName": "PRO VITA S.C. MARLENA TERCZYŃSKA PIOTR TERCZYŃSKI",
    "terc": "0202021",
    "address": "KOPERNIKA 11H-2",
    "zipCode": "58-200",
    "voivodeship": "DOLNOŚLĄSKIE",
    "county": "dzierżoniowski",
    "community": "Dzierżoniów",
    "place": "DZIERŻONIÓW",
    "lon": "16.6470809",
    "lat": "50.7251227"
  },
  {
    "id": 233611,
    "ordinalNumber": "22",
    "facilityName": "ZESPÓŁ PRAKTYK LEKARSKICH EWA CHRZANOWSKA, KRYSTYNA WOLAŃSKA, PIOTR WOLAŃSKI SPÓŁKA JAWNA",
    "terc": "0202021",
    "address": "OS. TĘCZOWE 12A",
    "zipCode": "58-200",
    "voivodeship": "DOLNOŚLĄSKIE",
    "county": "dzierżoniowski",
    "community": "Dzierżoniów",
    "place": "DZIERŻONIÓW",
    "lon": "16.636451",
    "lat": "50.740336"
  },
  {
    "id": 233612,
    "ordinalNumber": "23",
    "facilityName": "PRZYCHODNIA PRO FAMILIA DZIERŻONIÓW",
    "terc": "0202021",
    "address": "POPRZECZNA 16",
    "zipCode": "58-200",
    "voivodeship": "DOLNOŚLĄSKIE",
    "county": "dzierżoniowski",
    "community": "Dzierżoniów",
    "place": "DZIERŻONIÓW",
    "lon": "16.653415",
    "lat": "50.728528"
  },
  {
    "id": 233613,
    "ordinalNumber": "24",
    "facilityName": "PRZYCHODNIA POD WIERZBAMI DZIERŻONIÓW",
    "terc": "0202021",
    "address": "WIERZBOWA 1",
    "zipCode": "58-200",
    "voivodeship": "DOLNOŚLĄSKIE",
    "county": "dzierżoniowski",
    "community": "Dzierżoniów",
    "place": "DZIERŻONIÓW",
    "lon": "16.651547",
    "lat": "50.721868"
  },
  {
    "id": 233614,
    "ordinalNumber": "25",
    "facilityName": "NIEPUBLICZNY ZAKŁAD OPIEKI ZDROWOTNEJ SZPITAL POWIATOWY W DZIERŻONIOWIE SP. Z O.O.",
    "terc": "0202021",
    "address": "CICHA 1",
    "zipCode": "58-200",
    "voivodeship": "DOLNOŚLĄSKIE",
    "county": "dzierżoniowski",
    "community": "Dzierżoniów",
    "place": "DZIERŻONIÓW",
    "lon": "16.65894",
    "lat": "50.72862"
  },
  {
    "id": 233615,
    "ordinalNumber": "26",
    "facilityName": "SP ZOZ PRZYCHODNIA MIEJSKA W PIESZYCACH",
    "terc": "0202034",
    "address": "KRÓLOWEJ JADWIGI 1",
    "zipCode": "58-250",
    "voivodeship": "DOLNOŚLĄSKIE",
    "county": "dzierżoniowski",
    "community": "Pieszyce",
    "place": "PIESZYCE",
    "lon": "16.581261",
    "lat": "50.7102"
  },
  {
    "id": 233616,
    "ordinalNumber": "27",
    "facilityName": "PUNKT SZCZEPIEŃ",
    "terc": "0202034",
    "address": "SPORTOWA 2",
    "zipCode": "58-250",
    "voivodeship": "DOLNOŚLĄSKIE",
    "county": "dzierżoniowski",
    "community": "Pieszyce",
    "place": "PIESZYCE",
    "lon": "16.586626",
    "lat": "50.7144349"
  },
  {
    "id": 233617,
    "ordinalNumber": "28",
    "facilityName": "PUNKT SZCZEPIEŃ",
    "terc": "0202041",
    "address": "PIASTOWSKA 2",
    "zipCode": "58-240",
    "voivodeship": "DOLNOŚLĄSKIE",
    "county": "dzierżoniowski",
    "community": "Piława Górna",
    "place": "PIŁAWA GÓRNA",
    "lon": "16.76027",
    "lat": "50.68233"
  },
  {
    "id": 233618,
    "ordinalNumber": "29",
    "facilityName": "NIEPUBLICZNY ZAKŁAD OPIEKI ZDROWOTNEJ W ŁAGIEWNIKACH",
    "terc": "0202062",
    "address": "SPORTOWA 9",
    "zipCode": "58-210",
    "voivodeship": "DOLNOŚLĄSKIE",
    "county": "dzierżoniowski",
    "community": "Łagiewniki",
    "place": "ŁAGIEWNIKI",
    "lon": "16.836137",
    "lat": "50.790722"
  },
  {
    "id": 233619,
    "ordinalNumber": "30",
    "facilityName": "DOBICKA-LASKOWSKA & ZADORSKI LEKARSKA SPÓŁKA PARTNERSKA",
    "terc": "0202062",
    "address": "JEDNOŚCI NARODOWEJ 30",
    "zipCode": "58-210",
    "voivodeship": "DOLNOŚLĄSKIE",
    "county": "dzierżoniowski",
    "community": "Łagiewniki",
    "place": "ŁAGIEWNIKI",
    "lon": "16.834843",
    "lat": "50.792247"
  },
  {
    "id": 233620,
    "ordinalNumber": "31",
    "facilityName": "DOBICKA-LASKOWSKA & ZADORSKI LEKARSKA SPÓŁKA PARTNERSKA",
    "terc": "0202062",
    "address": "JAŹWINA 113A",
    "zipCode": "58-212",
    "voivodeship": "DOLNOŚLĄSKIE",
    "county": "dzierżoniowski",
    "community": "Łagiewniki",
    "place": "JAŹWINA",
    "lon": "16.7101376333321",
    "lat": "50.7966290588217"
  },
  {
    "id": 233621,
    "ordinalNumber": "32",
    "facilityName": "PRZYCHODNIA PRO FAMILIA FILIA NIEMCZA",
    "terc": "0202074",
    "address": "CHROBREGO 50",
    "zipCode": "58-230",
    "voivodeship": "DOLNOŚLĄSKIE",
    "county": "dzierżoniowski",
    "community": "Niemcza",
    "place": "NIEMCZA",
    "lon": "16.830857",
    "lat": "50.709389"
  },
  {
    "id": 233622,
    "ordinalNumber": "33",
    "facilityName": "PODSTAWOWA OPIEKA ZDROWOTNA",
    "terc": "0203011",
    "address": "KOŚCIUSZKI 15A",
    "zipCode": "67-200",
    "voivodeship": "DOLNOŚLĄSKIE",
    "county": "głogowski",
    "community": "Głogów",
    "place": "GŁOGÓW",
    "lon": "16.081188",
    "lat": "51.654812"
  },
  {
    "id": 233623,
    "ordinalNumber": "34",
    "facilityName": "PRZYCHODNIA \"HIPOKRATES\" SPÓŁKA Z OGRANICZONĄ ODPOWIEDZIALNOŚCIĄ",
    "terc": "0203011",
    "address": "GENERAŁA WŁADYSŁAWA SIKORSKIEGO 19",
    "zipCode": "67-200",
    "voivodeship": "DOLNOŚLĄSKIE",
    "county": "głogowski",
    "community": "Głogów",
    "place": "GŁOGÓW",
    "lon": "16.075532",
    "lat": "51.665308"
  },
  {
    "id": 233624,
    "ordinalNumber": "35",
    "facilityName": "NIEPUBLICZNY ZAKŁAD OPIEKI ZDROWOTNEJ \"ASTRA-MED\" SPÓŁKA Z OGRANICZONĄ ODPOWIEDZIALNOŚCIĄ",
    "terc": "0203011",
    "address": "GWIAŹDZISTA 23",
    "zipCode": "67-200",
    "voivodeship": "DOLNOŚLĄSKIE",
    "county": "głogowski",
    "community": "Głogów",
    "place": "GŁOGÓW",
    "lon": "16.074052",
    "lat": "51.651001"
  },
  {
    "id": 233625,
    "ordinalNumber": "36",
    "facilityName": "WIEJSKI OŚRODEK ZDROWIA W KRZEPOWIE",
    "terc": "0203011",
    "address": "RUDNOWSKA 109",
    "zipCode": "67-200",
    "voivodeship": "DOLNOŚLĄSKIE",
    "county": "głogowski",
    "community": "Głogów",
    "place": "GŁOGÓW",
    "lon": "16.135488",
    "lat": "51.647509"
  },
  {
    "id": 233626,
    "ordinalNumber": "37",
    "facilityName": "PORADNIA LEKARZA PODSTAWOWEJ OPIEKI ZDROWOTNEJ",
    "terc": "0203011",
    "address": "MARII SKŁODOWSKIEJ - CURIE 11",
    "zipCode": "67-200",
    "voivodeship": "DOLNOŚLĄSKIE",
    "county": "głogowski",
    "community": "Głogów",
    "place": "GŁOGÓW",
    "lon": "16.075175",
    "lat": "51.666819"
  },
  {
    "id": 233627,
    "ordinalNumber": "38",
    "facilityName": "PRZYCHODNIA KONSYLIUM GŁOGÓW",
    "terc": "0203011",
    "address": "GWIAŹDZISTA 5A",
    "zipCode": "67-200",
    "voivodeship": "DOLNOŚLĄSKIE",
    "county": "głogowski",
    "community": "Głogów",
    "place": "GŁOGÓW",
    "lon": "16.072573",
    "lat": "51.65205"
  },
  {
    "id": 233628,
    "ordinalNumber": "39",
    "facilityName": "PULS SPÓŁKA Z OGRANICZONĄ ODPOWIEDZIALNOŚCIĄ NIEPUBLICZNY ZAKŁAD OPIEKI ZDROWOTNEJ PRZYCHODNIA LEKARSKA",
    "terc": "0203011",
    "address": "STANISŁAWA MONIUSZKI 9",
    "zipCode": "67-200",
    "voivodeship": "DOLNOŚLĄSKIE",
    "county": "głogowski",
    "community": "Głogów",
    "place": "GŁOGÓW",
    "lon": "16.086748",
    "lat": "51.655932"
  },
  {
    "id": 233629,
    "ordinalNumber": "40",
    "facilityName": "MIEDZIOWE CENTRUM ZDROWIA SA",
    "terc": "0203011",
    "address": "SPORTOWA 1B",
    "zipCode": "67-200",
    "voivodeship": "DOLNOŚLĄSKIE",
    "county": "głogowski",
    "community": "Głogów",
    "place": "GŁOGÓW",
    "lon": "16.098856",
    "lat": "51.653861"
  },
  {
    "id": 233630,
    "ordinalNumber": "41",
    "facilityName": "GLOGOWSKI SZPITAL POWIATOWY SP. Z O. O. AMBULATRIUM OGÓLNE",
    "terc": "0203011",
    "address": "KOŚCIUSZKI 15",
    "zipCode": "67-200",
    "voivodeship": "DOLNOŚLĄSKIE",
    "county": "głogowski",
    "community": "Głogów",
    "place": "GŁOGÓW",
    "lon": "16.081188",
    "lat": "51.654812"
  },
  {
    "id": 233631,
    "ordinalNumber": "42",
    "facilityName": "PUNKT SZCZEPIEŃ",
    "terc": "0203032",
    "address": "OBISZOWSKA 11",
    "zipCode": "67-222",
    "voivodeship": "DOLNOŚLĄSKIE",
    "county": "głogowski",
    "community": "Jerzmanowa",
    "place": "JERZMANOWA",
    "lon": "16.049231",
    "lat": "51.594454"
  },
  {
    "id": 233632,
    "ordinalNumber": "43",
    "facilityName": "PUNKT SZCZEPIEŃ",
    "terc": "0203042",
    "address": "KRZYCKA 2",
    "zipCode": "67-240",
    "voivodeship": "DOLNOŚLĄSKIE",
    "county": "głogowski",
    "community": "Kotla",
    "place": "KOTLA",
    "lon": "16.047083",
    "lat": "51.741071"
  },
  {
    "id": 233633,
    "ordinalNumber": "44",
    "facilityName": "NZOZ \"MEDICA\"",
    "terc": "0203052",
    "address": "NULL 30",
    "zipCode": "67-221",
    "voivodeship": "DOLNOŚLĄSKIE",
    "county": "głogowski",
    "community": "Pęcław",
    "place": "PĘCŁAW",
    "lon": "16.242927",
    "lat": "51.647787"
  },
  {
    "id": 233634,
    "ordinalNumber": "45",
    "facilityName": "PORADNIA LEKARZA POZ",
    "terc": "0203062",
    "address": "NIELUBIA 51",
    "zipCode": "67-231",
    "voivodeship": "DOLNOŚLĄSKIE",
    "county": "głogowski",
    "community": "Żukowice",
    "place": "NIELUBIA",
    "lon": "15.991809",
    "lat": "51.6346609"
  },
  {
    "id": 233635,
    "ordinalNumber": "46",
    "facilityName": "PORADNIA LEKARZA RODZINNEGO",
    "terc": "0204014",
    "address": "KAZIMIERZA WLK. 15B",
    "zipCode": "56-200",
    "voivodeship": "DOLNOŚLĄSKIE",
    "county": "górowski",
    "community": "Góra",
    "place": "GÓRA",
    "lon": "16.5273264",
    "lat": "51.6697476"
  },
  {
    "id": 233636,
    "ordinalNumber": "47",
    "facilityName": "GABINET NOCNEJ I ŚWIĄTECZNEJ OPIEKI ZDROWOTNEJ W GÓRZE",
    "terc": "0204014",
    "address": "ARMII POLSKIEJ 8",
    "zipCode": "56-200",
    "voivodeship": "DOLNOŚLĄSKIE",
    "county": "górowski",
    "community": "Góra",
    "place": "GÓRA",
    "lon": "16.538224",
    "lat": "51.664172"
  },
  {
    "id": 233637,
    "ordinalNumber": "48",
    "facilityName": "PORADNIA LEKARZA RODZINNEGO",
    "terc": "0204014",
    "address": "MICKIEWICZA 1",
    "zipCode": "56-200",
    "voivodeship": "DOLNOŚLĄSKIE",
    "county": "górowski",
    "community": "Góra",
    "place": "GÓRA",
    "lon": "16.542159",
    "lat": "51.665467"
  },
  {
    "id": 233638,
    "ordinalNumber": "49",
    "facilityName": "PORADNIA LEKARZA POZ",
    "terc": "0204015",
    "address": "RYDZYŃSKA 22",
    "zipCode": "56-200",
    "voivodeship": "DOLNOŚLĄSKIE",
    "county": "górowski",
    "community": "Góra",
    "place": "CZERNINA",
    "lon": "16.618759080611",
    "lat": "51.7247004448457"
  },
  {
    "id": 233639,
    "ordinalNumber": "50",
    "facilityName": "PORADNIA LEKARZA RODZINNEGO",
    "terc": "0204015",
    "address": "CHRÓŚCINA 21",
    "zipCode": "56-200",
    "voivodeship": "DOLNOŚLĄSKIE",
    "county": "górowski",
    "community": "Góra",
    "place": "CHRÓŚCINA",
    "lon": "16.525126",
    "lat": "51.74376"
  },
  {
    "id": 233640,
    "ordinalNumber": "51",
    "facilityName": "NIEPUBLICZNY ZAKŁAD OPIEKI ZDROWOTNEJ \"ELMED\" PRAKTYKA LEKARZA RODZINNEGO S.C. MAŁGORZATA KOPEĆ, WITOLD KOPEĆ FILIA W JEMIELNIE",
    "terc": "0204022",
    "address": "JEMIELNO 109",
    "zipCode": "56-209",
    "voivodeship": "DOLNOŚLĄSKIE",
    "county": "górowski",
    "community": "Jemielno",
    "place": "JEMIELNO",
    "lon": "16.5527798",
    "lat": "51.5266053"
  },
  {
    "id": 233641,
    "ordinalNumber": "52",
    "facilityName": "NIEPUBLICZNY ZAKŁAD OPIEKI ZDROWOTNEJ \"ELMED\" PRAKTYKA LEKARZA RODZINNEGO S.C. MAŁGORZATA KOPEĆ, WITOLD KOPEĆ FILIA W LUBOSZYCACH",
    "terc": "0204022",
    "address": "LUBOSZYCE 3",
    "zipCode": "56-209",
    "voivodeship": "DOLNOŚLĄSKIE",
    "county": "górowski",
    "community": "Jemielno",
    "place": "LUBOSZYCE",
    "lon": "16.420072",
    "lat": "51.609204"
  },
  {
    "id": 233642,
    "ordinalNumber": "53",
    "facilityName": "PORADNIA LEKARZA POZ",
    "terc": "0204032",
    "address": "KRÓTKA 5",
    "zipCode": "56-215",
    "voivodeship": "DOLNOŚLĄSKIE",
    "county": "górowski",
    "community": "Niechlów",
    "place": "NIECHLÓW",
    "lon": "16.3648572563939",
    "lat": "51.689770821105"
  },
  {
    "id": 233643,
    "ordinalNumber": "54",
    "facilityName": "VIS-MED",
    "terc": "0204044",
    "address": "ZACISZE 10A",
    "zipCode": "56-210",
    "voivodeship": "DOLNOŚLĄSKIE",
    "county": "górowski",
    "community": "Wąsosz",
    "place": "WĄSOSZ",
    "lon": "16.699016",
    "lat": "51.565649"
  },
  {
    "id": 233644,
    "ordinalNumber": "55",
    "facilityName": "NIEPUBLICZNY ZAKŁAD OPIEKI ZDROWOTNEJ \"ELMED\"PRAKTYKA LEKARZA RODZINNEGO",
    "terc": "0204044",
    "address": "SŁONECZNA 1",
    "zipCode": "56-210",
    "voivodeship": "DOLNOŚLĄSKIE",
    "county": "górowski",
    "community": "Wąsosz",
    "place": "WĄSOSZ",
    "lon": "16.70037",
    "lat": "51.566802"
  },
  {
    "id": 233645,
    "ordinalNumber": "56",
    "facilityName": "CENTRUM DIAGNOSTYCZNO TERAPEUTYCZNE MEDICUS",
    "terc": "0205011",
    "address": "SZPITALNA 3A",
    "zipCode": "59-400",
    "voivodeship": "DOLNOŚLĄSKIE",
    "county": "jaworski",
    "community": "Jawor",
    "place": "JAWOR",
    "lon": "16.199012",
    "lat": "51.047192"
  },
  {
    "id": 233646,
    "ordinalNumber": "57",
    "facilityName": "PUNKT SZCZEPIEŃ",
    "terc": "0205011",
    "address": "STANISŁAWA MONIUSZKI 6",
    "zipCode": "59-400",
    "voivodeship": "DOLNOŚLĄSKIE",
    "county": "jaworski",
    "community": "Jawor",
    "place": "JAWOR",
    "lon": "16.189148",
    "lat": "51.056862"
  },
  {
    "id": 233647,
    "ordinalNumber": "58",
    "facilityName": "PUNKT SZCZEPIEŃ",
    "terc": "0205011",
    "address": "SZPITALNA 3",
    "zipCode": "59-400",
    "voivodeship": "DOLNOŚLĄSKIE",
    "county": "jaworski",
    "community": "Jawor",
    "place": "JAWOR",
    "lon": "16.199187",
    "lat": "51.046951"
  },
  {
    "id": 233648,
    "ordinalNumber": "59",
    "facilityName": "PUNKT SZCZEPIEŃ",
    "terc": "0205011",
    "address": "ROMANA DMOWSKIEGO 9",
    "zipCode": "59-400",
    "voivodeship": "DOLNOŚLĄSKIE",
    "county": "jaworski",
    "community": "Jawor",
    "place": "JAWOR",
    "lon": "16.182822",
    "lat": "51.058969"
  },
  {
    "id": 233649,
    "ordinalNumber": "60",
    "facilityName": "PUNKT SZCZEPIEŃ",
    "terc": "0205024",
    "address": "WYSOKOGÓRSKA 6",
    "zipCode": "59-420",
    "voivodeship": "DOLNOŚLĄSKIE",
    "county": "jaworski",
    "community": "Bolków",
    "place": "BOLKÓW",
    "lon": "16.104891",
    "lat": "50.92323"
  },
  {
    "id": 233650,
    "ordinalNumber": "61",
    "facilityName": "GMINNY OŚRODEK ZDROWIA W PIOTROWICACH",
    "terc": "0205032",
    "address": "MĘCINKA 85",
    "zipCode": "59-424",
    "voivodeship": "DOLNOŚLĄSKIE",
    "county": "jaworski",
    "community": "Męcinka",
    "place": "MĘCINKA",
    "lon": "16.1016042",
    "lat": "51.0733373"
  },
  {
    "id": 233651,
    "ordinalNumber": "62",
    "facilityName": "GMINNY OŚRODEK ZDROWIA W PIOTROWICACH",
    "terc": "0205032",
    "address": "NA 113",
    "zipCode": "59-424",
    "voivodeship": "DOLNOŚLĄSKIE",
    "county": "jaworski",
    "community": "Męcinka",
    "place": "PIOTROWICE",
    "lon": "16.1377861",
    "lat": "51.0568799"
  },
  {
    "id": 233652,
    "ordinalNumber": "63",
    "facilityName": "GMINNY OŚRODEK ZDROWIA W MŚCIWOJOWIE",
    "terc": "0205042",
    "address": "5 A",
    "zipCode": "59-407",
    "voivodeship": "DOLNOŚLĄSKIE",
    "county": "jaworski",
    "community": "Mściwojów",
    "place": "MŚCIWOJÓW",
    "lon": "16.278058",
    "lat": "51.044264"
  },
  {
    "id": 233653,
    "ordinalNumber": "64",
    "facilityName": "GMINNY ZESPÓŁ ZAKŁADÓW OPIEKI PODSTAWOWEJ W PASZOWICACH",
    "terc": "0205052",
    "address": "PASZOWICE 260",
    "zipCode": "59-411",
    "voivodeship": "DOLNOŚLĄSKIE",
    "county": "jaworski",
    "community": "Paszowice",
    "place": "PASZOWICE",
    "lon": "16.166426",
    "lat": "51.019261"
  },
  {
    "id": 233654,
    "ordinalNumber": "65",
    "facilityName": "OŚRODEK ZDROWIA W WĄDROŻU WIELKIM",
    "terc": "0205062",
    "address": "WĄDROŻE WIELKIE 167",
    "zipCode": "59-430",
    "voivodeship": "DOLNOŚLĄSKIE",
    "county": "jaworski",
    "community": "Wądroże Wielkie",
    "place": "WĄDROŻE WIELKIE",
    "lon": "16.329671",
    "lat": "51.112102"
  },
  {
    "id": 233655,
    "ordinalNumber": "66",
    "facilityName": "SZPITAL - ZARZECZE",
    "terc": "0206011",
    "address": "MYŚLIWSKA 13",
    "zipCode": "58-540",
    "voivodeship": "DOLNOŚLĄSKIE",
    "county": "karkonoski",
    "community": "Karpacz",
    "place": "KARPACZ",
    "lon": "15.741001",
    "lat": "50.781276"
  },
  {
    "id": 233656,
    "ordinalNumber": "67",
    "facilityName": "PRZYCHODNIA W KARPACZU",
    "terc": "0206011",
    "address": "KONSTYTUCJI 3 MAJA 71",
    "zipCode": "58-540",
    "voivodeship": "DOLNOŚLĄSKIE",
    "county": "karkonoski",
    "community": "Karpacz",
    "place": "KARPACZ",
    "lon": "15.747358",
    "lat": "50.77425"
  },
  {
    "id": 233657,
    "ordinalNumber": "68",
    "facilityName": "NIEPUBLICZNY ZAKŁAD OPIEKI ZDROWOTNEJ \"CITO-MED\"",
    "terc": "0206021",
    "address": "1 MAJA 2A",
    "zipCode": "58-530",
    "voivodeship": "DOLNOŚLĄSKIE",
    "county": "karkonoski",
    "community": "Kowary",
    "place": "KOWARY",
    "lon": "15.835667",
    "lat": "50.793038"
  },
  {
    "id": 233658,
    "ordinalNumber": "69",
    "facilityName": "PUNKT SZCZEPIEŃ",
    "terc": "0206021",
    "address": "JELENIOGÓRSKA 14D",
    "zipCode": "58-530",
    "voivodeship": "DOLNOŚLĄSKIE",
    "county": "karkonoski",
    "community": "Kowary",
    "place": "KOWARY",
    "lon": "15.824777",
    "lat": "50.801269"
  },
  {
    "id": 233659,
    "ordinalNumber": "70",
    "facilityName": "GABINET LEKARZA RODZINNEGO",
    "terc": "0206031",
    "address": "KRYSZTAŁOWA 58",
    "zipCode": "58-573",
    "voivodeship": "DOLNOŚLĄSKIE",
    "county": "karkonoski",
    "community": "Piechowice",
    "place": "PIECHOWICE",
    "lon": "15.592857",
    "lat": "50.84925"
  },
  {
    "id": 233660,
    "ordinalNumber": "71",
    "facilityName": "PRZYCHODNIA POZ",
    "terc": "0206041",
    "address": "SZPITALNA 1",
    "zipCode": "58-580",
    "voivodeship": "DOLNOŚLĄSKIE",
    "county": "karkonoski",
    "community": "Szklarska Poręba",
    "place": "SZKLARSKA PORĘBA",
    "lon": "15.522398",
    "lat": "50.832563"
  },
  {
    "id": 233661,
    "ordinalNumber": "72",
    "facilityName": "WOJEWÓDZKI SZPITAL REHABILITACYJNY W JANOWICACH WIELKICH",
    "terc": "0206052",
    "address": "SUDECKA 15",
    "zipCode": "58-520",
    "voivodeship": "DOLNOŚLĄSKIE",
    "county": "karkonoski",
    "community": "Janowice Wielkie",
    "place": "JANOWICE WIELKIE",
    "lon": "15.927895",
    "lat": "50.891936"
  },
  {
    "id": 233662,
    "ordinalNumber": "73",
    "facilityName": "PHARMED",
    "terc": "0206052",
    "address": "WOJSKA POLSKIEGO 16",
    "zipCode": "58-520",
    "voivodeship": "DOLNOŚLĄSKIE",
    "county": "karkonoski",
    "community": "Janowice Wielkie",
    "place": "JANOWICE WIELKIE",
    "lon": "15.919036",
    "lat": "50.87712"
  },
  {
    "id": 233663,
    "ordinalNumber": "74",
    "facilityName": "SAMODZIELNY PUBLICZNY GMINNY OŚRODEK ZDROWIA - FILIA W DZIWIESZOWIE",
    "terc": "0206062",
    "address": "DZIWISZÓW 43",
    "zipCode": "58-508",
    "voivodeship": "DOLNOŚLĄSKIE",
    "county": "karkonoski",
    "community": "Jeżów Sudecki",
    "place": "DZIWISZÓW",
    "lon": "15.7935437",
    "lat": "50.8643771"
  },
  {
    "id": 233664,
    "ordinalNumber": "75",
    "facilityName": "SAMODZIELNY PUBLICZNY ZAKŁAD OPIEKI ZDROWOTNEJ W MYSŁAKOWICACH",
    "terc": "0206072",
    "address": "WOJSKA POLSKIEGO 2A",
    "zipCode": "58-533",
    "voivodeship": "DOLNOŚLĄSKIE",
    "county": "karkonoski",
    "community": "Mysłakowice",
    "place": "MYSŁAKOWICE",
    "lon": "15.785887",
    "lat": "50.838686"
  },
  {
    "id": 233665,
    "ordinalNumber": "76",
    "facilityName": "PRZYCHODNIA \" NASZE ZDROWIE \" PLACÓWKA W PODGÓRZYNIE",
    "terc": "0206082",
    "address": "ŻOŁNIERSKA 50",
    "zipCode": "58-562",
    "voivodeship": "DOLNOŚLĄSKIE",
    "county": "karkonoski",
    "community": "Podgórzyn",
    "place": "PODGÓRZYN",
    "lon": "15.68458",
    "lat": "50.82167"
  },
  {
    "id": 233666,
    "ordinalNumber": "77",
    "facilityName": "PRZYCHODNIA \"NASZE ZDROWIE\" PLACÓWKA W SOSNÓWCE",
    "terc": "0206082",
    "address": "STRAŻACKA 7",
    "zipCode": "58-564",
    "voivodeship": "DOLNOŚLĄSKIE",
    "county": "karkonoski",
    "community": "Podgórzyn",
    "place": "SOSNÓWKA",
    "lon": "15.719015",
    "lat": "50.8227509"
  },
  {
    "id": 233667,
    "ordinalNumber": "78",
    "facilityName": "PRZYCHODNIA \" NASZE ZDROWIE \" PLACÓWKA W MIŁKOWIE",
    "terc": "0206082",
    "address": "MIŁKÓW 70A",
    "zipCode": "58-535",
    "voivodeship": "DOLNOŚLĄSKIE",
    "county": "karkonoski",
    "community": "Podgórzyn",
    "place": "MIŁKÓW",
    "lon": "15.7617301810729",
    "lat": "50.8096054929921"
  },
  {
    "id": 233668,
    "ordinalNumber": "79",
    "facilityName": "RPL ADAM ZIELIŃSKI",
    "terc": "0206092",
    "address": "NA 59B",
    "zipCode": "58-512",
    "voivodeship": "DOLNOŚLĄSKIE",
    "county": "karkonoski",
    "community": "Stara Kamienica",
    "place": "STARA KAMIENICA",
    "lon": "15.579072",
    "lat": "50.9207026"
  },
  {
    "id": 233669,
    "ordinalNumber": "80",
    "facilityName": "PUNKT SZCZEPIEŃ",
    "terc": "0207011",
    "address": "WŁADYSŁAWA BRONIEWSKIEGO 26A",
    "zipCode": "58-400",
    "voivodeship": "DOLNOŚLĄSKIE",
    "county": "kamiennogórski",
    "community": "Kamienna Góra",
    "place": "KAMIENNA GÓRA",
    "lon": "16.02894",
    "lat": "50.782794"
  },
  {
    "id": 233670,
    "ordinalNumber": "81",
    "facilityName": "NIEPUBLICZNY ZAKŁAD OPIEKI ZDROWOTNEJ RODZINA",
    "terc": "0207011",
    "address": "KOŚCIUSZKI 6",
    "zipCode": "58-400",
    "voivodeship": "DOLNOŚLĄSKIE",
    "county": "kamiennogórski",
    "community": "Kamienna Góra",
    "place": "KAMIENNA GÓRA",
    "lon": "16.035305",
    "lat": "50.781612"
  },
  {
    "id": 233671,
    "ordinalNumber": "82",
    "facilityName": "PORADNIA NOCNEJ I ŚWIĄTECZNEJ OPIEKI ZDROWOTNEJ",
    "terc": "0207011",
    "address": "KORCZAKA 1",
    "zipCode": "58-400",
    "voivodeship": "DOLNOŚLĄSKIE",
    "county": "kamiennogórski",
    "community": "Kamienna Góra",
    "place": "KAMIENNA GÓRA",
    "lon": "16.056015",
    "lat": "50.77781"
  },
  {
    "id": 233672,
    "ordinalNumber": "83",
    "facilityName": "POWIATOWE CENTRUM ZDROWIA W KAMIENNEJ GÓRZE SP. Z O.O. NZOZ SZPITAL POWIATOWY",
    "terc": "0207011",
    "address": "BOHATERÓW GETTA 10",
    "zipCode": "58-400",
    "voivodeship": "DOLNOŚLĄSKIE",
    "county": "kamiennogórski",
    "community": "Kamienna Góra",
    "place": "KAMIENNA GÓRA",
    "lon": "16.02703",
    "lat": "50.7865"
  },
  {
    "id": 233673,
    "ordinalNumber": "84",
    "facilityName": "PUNKT SZCZEPIEŃ",
    "terc": "0207022",
    "address": "LESZCZYNIEC 131",
    "zipCode": "58-425",
    "voivodeship": "DOLNOŚLĄSKIE",
    "county": "kamiennogórski",
    "community": "Kamienna Góra",
    "place": "LESZCZYNIEC",
    "lon": "15.9045982",
    "lat": "50.7797816"
  },
  {
    "id": 233674,
    "ordinalNumber": "85",
    "facilityName": "PRZYCHODNIA ZDROWIA GAMBIT SPÓŁKA Z OGRANICZONĄ ODPOWIEDZIALNOŚCIĄ",
    "terc": "0207034",
    "address": "AL. WOJSKA POLSKIEGO 16",
    "zipCode": "58-420",
    "voivodeship": "DOLNOŚLĄSKIE",
    "county": "kamiennogórski",
    "community": "Lubawka",
    "place": "LUBAWKA",
    "lon": "16.00017",
    "lat": "50.703521"
  },
  {
    "id": 233675,
    "ordinalNumber": "86",
    "facilityName": "PORADNIA (GABINET) LEKARZA PODSTAWOWEJ OPIEKI ZDROWOTNEJ",
    "terc": "0207042",
    "address": "SZKOLNA 4A",
    "zipCode": "58-410",
    "voivodeship": "DOLNOŚLĄSKIE",
    "county": "kamiennogórski",
    "community": "Marciszów",
    "place": "MARCISZÓW",
    "lon": "16.0159663",
    "lat": "50.8509833"
  },
  {
    "id": 233676,
    "ordinalNumber": "87",
    "facilityName": "SALUS CENTRUM MEDYCZNE FILIA W DUSZNIKACH",
    "terc": "0208011",
    "address": "DWORCOWA 9",
    "zipCode": "57-340",
    "voivodeship": "DOLNOŚLĄSKIE",
    "county": "kłodzki",
    "community": "Duszniki-Zdrój",
    "place": "DUSZNIKI ZDRÓJ",
    "lon": "16.385075",
    "lat": "50.406416"
  },
  {
    "id": 233677,
    "ordinalNumber": "88",
    "facilityName": "PRZYCHODNIA UZDROWISKOWA",
    "terc": "0208011",
    "address": "ZIELONA 23",
    "zipCode": "57-340",
    "voivodeship": "DOLNOŚLĄSKIE",
    "county": "kłodzki",
    "community": "Duszniki-Zdrój",
    "place": "DUSZNIKI ZDRÓJ",
    "lon": "16.382516",
    "lat": "50.393121"
  },
  {
    "id": 233678,
    "ordinalNumber": "89",
    "facilityName": "SALUS CENTRUM MEDYCZNE ODDZIAŁ GŁÓWNY",
    "terc": "0208021",
    "address": "KUSOCIŃSKIEGO 3A",
    "zipCode": "57-300",
    "voivodeship": "DOLNOŚLĄSKIE",
    "county": "kłodzki",
    "community": "Kłodzko",
    "place": "KŁODZKO",
    "lon": "16.648951",
    "lat": "50.430272"
  },
  {
    "id": 233679,
    "ordinalNumber": "90",
    "facilityName": "SZPITAL W KŁODZKU",
    "terc": "0208021",
    "address": "WOJSKA POLSKIEGO 16",
    "zipCode": "57-300",
    "voivodeship": "DOLNOŚLĄSKIE",
    "county": "kłodzki",
    "community": "Kłodzko",
    "place": "KŁODZKO",
    "lon": "16.650476",
    "lat": "50.436994"
  },
  {
    "id": 233680,
    "ordinalNumber": "91",
    "facilityName": "NIEPUBLICZNY ZAKŁAD OPIEKI ZDROWOTNEJ KŁODZKI OBWÓD LECZNICTWA KOLEJOWEGO SP. Z O.O.",
    "terc": "0208021",
    "address": "ŁUŻYCKA 9",
    "zipCode": "57-300",
    "voivodeship": "DOLNOŚLĄSKIE",
    "county": "kłodzki",
    "community": "Kłodzko",
    "place": "KŁODZKO",
    "lon": "16.660613",
    "lat": "50.436192"
  },
  {
    "id": 233681,
    "ordinalNumber": "92",
    "facilityName": "PUNKT SZCZEPIEŃ",
    "terc": "0208021",
    "address": "SPÓŁDZIELCZA 4",
    "zipCode": "57-300",
    "voivodeship": "DOLNOŚLĄSKIE",
    "county": "kłodzki",
    "community": "Kłodzko",
    "place": "KŁODZKO",
    "lon": "16.640708",
    "lat": "50.431742"
  },
  {
    "id": 233682,
    "ordinalNumber": "93",
    "facilityName": "GABINET SZCZEPIEŃ",
    "terc": "0208021",
    "address": "FLORIANA SZAREGO 4",
    "zipCode": "57-300",
    "voivodeship": "DOLNOŚLĄSKIE",
    "county": "kłodzki",
    "community": "Kłodzko",
    "place": "KŁODZKO",
    "lon": "16.648835",
    "lat": "50.437636"
  },
  {
    "id": 233683,
    "ordinalNumber": "94",
    "facilityName": "PUNKT SZCZEPIEŃ",
    "terc": "0208021",
    "address": "FLORIANA SZAREGO 4",
    "zipCode": "57-300",
    "voivodeship": "DOLNOŚLĄSKIE",
    "county": "kłodzki",
    "community": "Kłodzko",
    "place": "KŁODZKO",
    "lon": "16.648835",
    "lat": "50.437636"
  },
  {
    "id": 233684,
    "ordinalNumber": "95",
    "facilityName": "PUNKT SZCZEPIEŃ",
    "terc": "0208021",
    "address": "FLORIANA SZAREGO 4",
    "zipCode": "57-300",
    "voivodeship": "DOLNOŚLĄSKIE",
    "county": "kłodzki",
    "community": "Kłodzko",
    "place": "KŁODZKO",
    "lon": "16.648835",
    "lat": "50.437636"
  },
  {
    "id": 233685,
    "ordinalNumber": "96",
    "facilityName": "NIEPUBLICZNY ZAKŁAD OPIEKI ZDROWOTNEJ LIFE-MED S.C.",
    "terc": "0208021",
    "address": "KOŚCIUSZKI 9A",
    "zipCode": "57-300",
    "voivodeship": "DOLNOŚLĄSKIE",
    "county": "kłodzki",
    "community": "Kłodzko",
    "place": "KŁODZKO",
    "lon": "16.651446",
    "lat": "50.436279"
  },
  {
    "id": 233686,
    "ordinalNumber": "97",
    "facilityName": "ESKULAP SPÓŁKA Z OGRANICZONĄ ODPOWIEDZIALNOŚCIĄ",
    "terc": "0208031",
    "address": "SŁONECZNA 13",
    "zipCode": "57-350",
    "voivodeship": "DOLNOŚLĄSKIE",
    "county": "kłodzki",
    "community": "Kudowa-Zdrój",
    "place": "KUDOWA-ZDRÓJ",
    "lon": "16.2476089",
    "lat": "50.4410168"
  },
  {
    "id": 233687,
    "ordinalNumber": "98",
    "facilityName": "SZPITAL UZDROWISKOWY NR I PAWILON \"ZAMECZEK\"",
    "terc": "0208031",
    "address": "MONIUSZKI 1",
    "zipCode": "57-350",
    "voivodeship": "DOLNOŚLĄSKIE",
    "county": "kłodzki",
    "community": "Kudowa-Zdrój",
    "place": "KUDOWA ZDRÓJ",
    "lon": "16.245193",
    "lat": "50.443348"
  },
  {
    "id": 233688,
    "ordinalNumber": "99",
    "facilityName": "SALUS CENTRUM MEDYCZNE FILIA W NOWEJ RUDZIE",
    "terc": "0208041",
    "address": "UL. MARSZ. JÓZEFA PIŁSUDSKIEGO 2",
    "zipCode": "57-400",
    "voivodeship": "DOLNOŚLĄSKIE",
    "county": "kłodzki",
    "community": "Nowa Ruda",
    "place": "NOWA RUDA",
    "lon": "16.5002377",
    "lat": "50.579627"
  },
  {
    "id": 233689,
    "ordinalNumber": "100",
    "facilityName": "NZOZ EVITA SP. Z O.O.",
    "terc": "0208041",
    "address": "BOHATERÓW GETTA 8",
    "zipCode": "57-400",
    "voivodeship": "DOLNOŚLĄSKIE",
    "county": "kłodzki",
    "community": "Nowa Ruda",
    "place": "NOWA RUDA",
    "lon": "16.502779",
    "lat": "50.578865"
  },
  {
    "id": 233690,
    "ordinalNumber": "101",
    "facilityName": "NZOZ EVITA SP. Z O.O FILIA NR 1",
    "terc": "0208041",
    "address": "SPACEROWA 15A",
    "zipCode": "57-400",
    "voivodeship": "DOLNOŚLĄSKIE",
    "county": "kłodzki",
    "community": "Nowa Ruda",
    "place": "NOWA RUDA",
    "lon": "16.552354",
    "lat": "50.543564"
  },
  {
    "id": 233691,
    "ordinalNumber": "102",
    "facilityName": "NZOZ EVITA SP. Z O.O. FILIA NR 2",
    "terc": "0208041",
    "address": "ŚWIDNICKA 20",
    "zipCode": "57-401",
    "voivodeship": "DOLNOŚLĄSKIE",
    "county": "kłodzki",
    "community": "Nowa Ruda",
    "place": "NOWA RUDA",
    "lon": "16.508975",
    "lat": "50.595951"
  },
  {
    "id": 233692,
    "ordinalNumber": "103",
    "facilityName": "PRZYCHODNIA UZDROWISKOWA",
    "terc": "0208051",
    "address": "PARKOWA 4",
    "zipCode": "57-320",
    "voivodeship": "DOLNOŚLĄSKIE",
    "county": "kłodzki",
    "community": "Polanica-Zdrój",
    "place": "POLANICA ZDRÓJ",
    "lon": "16.510947",
    "lat": "50.409198"
  },
  {
    "id": 233693,
    "ordinalNumber": "104",
    "facilityName": "PUNKT SZCZEPIEŃ",
    "terc": "0208051",
    "address": "WARSZAWSKA 20",
    "zipCode": "57-320",
    "voivodeship": "DOLNOŚLĄSKIE",
    "county": "kłodzki",
    "community": "Polanica-Zdrój",
    "place": "POLANICA-ZDRÓJ",
    "lon": "16.513606",
    "lat": "50.400626"
  },
  {
    "id": 233694,
    "ordinalNumber": "105",
    "facilityName": "NIEPUBLICZNY ZAKŁAD OPIEKI ZDROWOTNEJ \"MEDICUS\" SP. Z O.O.",
    "terc": "0208051",
    "address": "LIPOWA 6",
    "zipCode": "57-320",
    "voivodeship": "DOLNOŚLĄSKIE",
    "county": "kłodzki",
    "community": "Polanica-Zdrój",
    "place": "POLANICA-ZDRÓJ",
    "lon": "16.512637",
    "lat": "50.406212"
  },
  {
    "id": 233695,
    "ordinalNumber": "106",
    "facilityName": "PRAKTYKA LEKARZA RODZINNEGO KRZYSZTOF PIÓRKOWSKI",
    "terc": "0208051",
    "address": "WOJSKA POLSKIEGO 1",
    "zipCode": "57-320",
    "voivodeship": "DOLNOŚLĄSKIE",
    "county": "kłodzki",
    "community": "Polanica-Zdrój",
    "place": "POLANICA-ZDRÓJ",
    "lon": "16.512603",
    "lat": "50.404045"
  },
  {
    "id": 233696,
    "ordinalNumber": "107",
    "facilityName": "BYSTRZYCKIE CENTRUM ZDROWIA SPÓŁKA Z OGRANICZONĄ ODPOWIEDZIALNOŚCIĄ",
    "terc": "0208064",
    "address": "OKRZEI 49",
    "zipCode": "57-500",
    "voivodeship": "DOLNOŚLĄSKIE",
    "county": "kłodzki",
    "community": "Bystrzyca Kłodzka",
    "place": "BYSTRZYCA KŁODZKA",
    "lon": "16.653692",
    "lat": "50.299955"
  },
  {
    "id": 233697,
    "ordinalNumber": "108",
    "facilityName": "NZOZ PRAKTYKA LEKARZA RODZINNEGO EWA MAZUREK",
    "terc": "0208064",
    "address": "1 MAJA 5",
    "zipCode": "57-500",
    "voivodeship": "DOLNOŚLĄSKIE",
    "county": "kłodzki",
    "community": "Bystrzyca Kłodzka",
    "place": "BYSTRZYCA KŁODZKA",
    "lon": "16.652915",
    "lat": "50.302738"
  },
  {
    "id": 233698,
    "ordinalNumber": "109",
    "facilityName": "PRAKTYKA LEKARZA RODZINNEGO LEK. EDYTA NIEBUDEK",
    "terc": "0208064",
    "address": "SIENKIEWICZA 8",
    "zipCode": "57-500",
    "voivodeship": "DOLNOŚLĄSKIE",
    "county": "kłodzki",
    "community": "Bystrzyca Kłodzka",
    "place": "BYSTRZYCA KŁODZKA",
    "lon": "16.651276",
    "lat": "50.300153"
  },
  {
    "id": 233699,
    "ordinalNumber": "110",
    "facilityName": "PUNKT SZCZEPIEŃ",
    "terc": "0208072",
    "address": "KROSNOWICE 179A",
    "zipCode": "57-362",
    "voivodeship": "DOLNOŚLĄSKIE",
    "county": "kłodzki",
    "community": "Kłodzko",
    "place": "KROSNOWICE",
    "lon": "16.6307996",
    "lat": "50.388584"
  },
  {
    "id": 233700,
    "ordinalNumber": "111",
    "facilityName": "NIEPUBLICZNY ZAKŁAD OPIEKI ZDROWOTNEJ PRAKTYKA LEKARZA RODZINNEGO PIOTR STANKIEWICZ",
    "terc": "0208072",
    "address": "JASZKOWA GÓRNA 109",
    "zipCode": "57-312",
    "voivodeship": "DOLNOŚLĄSKIE",
    "county": "kłodzki",
    "community": "Kłodzko",
    "place": "JASZKOWA GÓRNA",
    "lon": "16.746074",
    "lat": "50.405731"
  },
  {
    "id": 233701,
    "ordinalNumber": "112",
    "facilityName": "PUNKT SZCZEPIEŃ",
    "terc": "0208072",
    "address": "KŁODZKA 65",
    "zipCode": "57-360",
    "voivodeship": "DOLNOŚLĄSKIE",
    "county": "kłodzki",
    "community": "Kłodzko",
    "place": "OŁDRZYCHOWICE KŁODZKIE",
    "lon": "16.721248",
    "lat": "50.360359"
  },
  {
    "id": 233702,
    "ordinalNumber": "113",
    "facilityName": "NIEPUBLICZNY ZAKŁAD OPIEKI ZDROWOTNEJ ALBA-MED",
    "terc": "0208084",
    "address": "STRAŻACKA 2/1",
    "zipCode": "57-540",
    "voivodeship": "DOLNOŚLĄSKIE",
    "county": "kłodzki",
    "community": "Lądek-Zdrój",
    "place": "LĄDEK ZDRÓJ",
    "lon": "16.8735496",
    "lat": "50.3459034"
  },
  {
    "id": 233703,
    "ordinalNumber": "114",
    "facilityName": "PRZYCHODNIA PODSTAWOWEJ OPIEKI ZDROWOTNEJ",
    "terc": "0208084",
    "address": "UL. KOŚCIUSZKI 15",
    "zipCode": "57-540",
    "voivodeship": "DOLNOŚLĄSKIE",
    "county": "kłodzki",
    "community": "Lądek-Zdrój",
    "place": "LĄDEK ZDRÓJ",
    "lon": "16.88653",
    "lat": "50.341087"
  },
  {
    "id": 233704,
    "ordinalNumber": "115",
    "facilityName": "ODDZIAŁ SANATORYJNY 1",
    "terc": "0208084",
    "address": "JADWIGI 2",
    "zipCode": "57-540",
    "voivodeship": "DOLNOŚLĄSKIE",
    "county": "kłodzki",
    "community": "Lądek-Zdrój",
    "place": "LĄDEK-ZDRÓJ",
    "lon": "16.8901822",
    "lat": "50.3424625"
  },
  {
    "id": 233705,
    "ordinalNumber": "116",
    "facilityName": "ODDZIAŁ REHABILITACJI",
    "terc": "0208084",
    "address": "ORLA 4",
    "zipCode": "57-540",
    "voivodeship": "DOLNOŚLĄSKIE",
    "county": "kłodzki",
    "community": "Lądek-Zdrój",
    "place": "LĄDEK-ZDRÓJ",
    "lon": "16.8886809",
    "lat": "50.34255"
  },
  {
    "id": 233706,
    "ordinalNumber": "117",
    "facilityName": "PUNKT SZCZEPIEŃ",
    "terc": "0208084",
    "address": "OSTROWICZA 1",
    "zipCode": "57-540",
    "voivodeship": "DOLNOŚLĄSKIE",
    "county": "kłodzki",
    "community": "Lądek-Zdrój",
    "place": "LĄDEK-ZDRÓJ",
    "lon": "16.887698",
    "lat": "50.340711"
  },
  {
    "id": 233707,
    "ordinalNumber": "118",
    "facilityName": "ESKULAP SPÓŁKA Z O.O FILIA LEWIN KŁODZKI",
    "terc": "0208092",
    "address": "GRANICZNA 7 7",
    "zipCode": "57-343",
    "voivodeship": "DOLNOŚLĄSKIE",
    "county": "kłodzki",
    "community": "Lewin Kłodzki",
    "place": "LEWIN KŁODZKI",
    "lon": "16.2476089",
    "lat": "50.4410168"
  },
  {
    "id": 233708,
    "ordinalNumber": "119",
    "facilityName": "PORADNIA LEKARZA POZ",
    "terc": "0208104",
    "address": "POWSTAŃCÓW ŚLĄSKICH 8",
    "zipCode": "57-530",
    "voivodeship": "DOLNOŚLĄSKIE",
    "county": "kłodzki",
    "community": "Międzylesie",
    "place": "MIĘDZYLESIE",
    "lon": "16.669892",
    "lat": "50.146629"
  },
  {
    "id": 233709,
    "ordinalNumber": "120",
    "facilityName": "PORADNIA LEKARZA RODZINNEGO",
    "terc": "0208105",
    "address": "KOLEJOWA 10",
    "zipCode": "57-530",
    "voivodeship": "DOLNOŚLĄSKIE",
    "county": "kłodzki",
    "community": "Międzylesie",
    "place": "DOMASZKÓW",
    "lon": "16.676413",
    "lat": "50.215718"
  },
  {
    "id": 233710,
    "ordinalNumber": "121",
    "facilityName": "SALUS CENTRUM MEDYCZNE FILIA W BOŻKOWIE",
    "terc": "0208112",
    "address": "BOŻKÓW 53",
    "zipCode": "57-441",
    "voivodeship": "DOLNOŚLĄSKIE",
    "county": "kłodzki",
    "community": "Nowa Ruda",
    "place": "BOŻKÓW",
    "lon": "16.5739552",
    "lat": "50.5095365"
  },
  {
    "id": 233711,
    "ordinalNumber": "122",
    "facilityName": "GMINNY OŚRODEK ZDROWIA PRO-MED W JUGOWIE SP. Z O.O.",
    "terc": "0208112",
    "address": "UL. GŁÓWNA 90A",
    "zipCode": "57-450",
    "voivodeship": "DOLNOŚLĄSKIE",
    "county": "kłodzki",
    "community": "Nowa Ruda",
    "place": "JUGÓW",
    "lon": "16.51651",
    "lat": "50.62758"
  },
  {
    "id": 233712,
    "ordinalNumber": "123",
    "facilityName": "PUNKT SZCZEPIEŃ",
    "terc": "0208124",
    "address": "STOŁOWOGÓRSKA 2",
    "zipCode": "57-420",
    "voivodeship": "DOLNOŚLĄSKIE",
    "county": "kłodzki",
    "community": "Radków",
    "place": "RADKÓW",
    "lon": "16.394754",
    "lat": "50.502494"
  },
  {
    "id": 233713,
    "ordinalNumber": "124",
    "facilityName": "PRAKTYKA LEKARZA RODZINNEGO FILIA W ŚCINAWCE DOLNEJ",
    "terc": "0208125",
    "address": "ŚCINAWKA DOLNA 16",
    "zipCode": "57-409",
    "voivodeship": "DOLNOŚLĄSKIE",
    "county": "kłodzki",
    "community": "Radków",
    "place": "ŚCINAWKA DOLNA",
    "lon": "16.541559",
    "lat": "50.494343"
  },
  {
    "id": 233714,
    "ordinalNumber": "125",
    "facilityName": "GRUPOWA PRAKTYKA LEKARZY POZ MEDICUS A. ZAJĄC, U. ŁĄCZYŃSKA-REMZA, P. PODŁOWSKI SPÓŁKA CYWILNA",
    "terc": "0208134",
    "address": "NADBRZEŻNA 14",
    "zipCode": "57-550",
    "voivodeship": "DOLNOŚLĄSKIE",
    "county": "kłodzki",
    "community": "Stronie Śląskie",
    "place": "STRONIE ŚLĄSKIE",
    "lon": "16.8756098",
    "lat": "50.2944637"
  },
  {
    "id": 233715,
    "ordinalNumber": "126",
    "facilityName": "ZAKŁAD OPIEKUŃCZO-LECZNICZY PSYCHIATRYCZNY",
    "terc": "0208134",
    "address": "SUDECKA 3A",
    "zipCode": "57-550",
    "voivodeship": "DOLNOŚLĄSKIE",
    "county": "kłodzki",
    "community": "Stronie Śląskie",
    "place": "STRONIE ŚLĄSKIE",
    "lon": "16.8767039",
    "lat": "50.290472"
  },
  {
    "id": 233716,
    "ordinalNumber": "127",
    "facilityName": "PUNKT SZCZEPIEŃ",
    "terc": "0208134",
    "address": "HUTNICZA 12",
    "zipCode": "57-550",
    "voivodeship": "DOLNOŚLĄSKIE",
    "county": "kłodzki",
    "community": "Stronie Śląskie",
    "place": "STRONIE ŚLĄSKIE",
    "lon": "16.877218",
    "lat": "50.299"
  },
  {
    "id": 233717,
    "ordinalNumber": "128",
    "facilityName": "GABINET PIELEGNIARKI ŚRODOWISKOWO-RODZINNEJ",
    "terc": "0208144",
    "address": "SIENKIEWICZA 1/6",
    "zipCode": "57-330",
    "voivodeship": "DOLNOŚLĄSKIE",
    "county": "kłodzki",
    "community": "Szczytna",
    "place": "SZCZYTNA",
    "lon": "16.447391",
    "lat": "50.412946"
  },
  {
    "id": 233718,
    "ordinalNumber": "129",
    "facilityName": "PRZYCHODNIA REJONOWA W CHOJNOWIE",
    "terc": "0209011",
    "address": "KAZIMIERZA WIELKIEGO 11",
    "zipCode": "59-225",
    "voivodeship": "DOLNOŚLĄSKIE",
    "county": "legnicki",
    "community": "Chojnów",
    "place": "CHOJNÓW",
    "lon": "15.937304",
    "lat": "51.272802"
  },
  {
    "id": 233719,
    "ordinalNumber": "130",
    "facilityName": "PUNKT SZCZEPIEŃ",
    "terc": "0209022",
    "address": "NA 17A",
    "zipCode": "59-225",
    "voivodeship": "DOLNOŚLĄSKIE",
    "county": "legnicki",
    "community": "Chojnów",
    "place": "KRZYWA",
    "lon": "15.821098",
    "lat": "51.2777699"
  },
  {
    "id": 233720,
    "ordinalNumber": "131",
    "facilityName": "GMINNY ZESPÓŁ ZAKŁADÓW OPIEKI PODSTAWOWEJ W CHOJNOWIE",
    "terc": "0209022",
    "address": "NA 18",
    "zipCode": "59-225",
    "voivodeship": "DOLNOŚLĄSKIE",
    "county": "legnicki",
    "community": "Chojnów",
    "place": "ROKITKI",
    "lon": "15.894336",
    "lat": "51.339402"
  },
  {
    "id": 233721,
    "ordinalNumber": "132",
    "facilityName": "GMINNY OŚRODEK ZDROWIA W KROTOSZYCACH",
    "terc": "0209032",
    "address": "KOPERNIKA 9/3",
    "zipCode": "59-223",
    "voivodeship": "DOLNOŚLĄSKIE",
    "county": "legnicki",
    "community": "Krotoszyce",
    "place": "KROTOSZYCE",
    "lon": "16.0486319",
    "lat": "51.151246"
  },
  {
    "id": 233722,
    "ordinalNumber": "133",
    "facilityName": "PUNKT SZCZEPIEŃ",
    "terc": "0209042",
    "address": "STAROPOLSKA 7A",
    "zipCode": "59-216",
    "voivodeship": "DOLNOŚLĄSKIE",
    "county": "legnicki",
    "community": "Kunice",
    "place": "KUNICE",
    "lon": "16.249623",
    "lat": "51.22336"
  },
  {
    "id": 233723,
    "ordinalNumber": "134",
    "facilityName": "PUNKT SZCZEPIEŃ",
    "terc": "0209042",
    "address": "JAŚKOWICE LEGNICKIE 37",
    "zipCode": "59-216",
    "voivodeship": "DOLNOŚLĄSKIE",
    "county": "legnicki",
    "community": "Kunice",
    "place": "JAŚKOWICE LEGNICKIE",
    "lon": "16.316456",
    "lat": "51.218238"
  },
  {
    "id": 233724,
    "ordinalNumber": "135",
    "facilityName": "PUNKT SZCZEPIEŃ",
    "terc": "0209052",
    "address": "KLASZTORNA 20",
    "zipCode": "59-241",
    "voivodeship": "DOLNOŚLĄSKIE",
    "county": "legnicki",
    "community": "Legnickie Pole",
    "place": "LEGNICKIE POLE",
    "lon": "16.247721",
    "lat": "51.145584"
  },
  {
    "id": 233725,
    "ordinalNumber": "136",
    "facilityName": "GOZ MIŁKOWICE",
    "terc": "0209062",
    "address": "DZIAŁKOWA 2A",
    "zipCode": "59-222",
    "voivodeship": "DOLNOŚLĄSKIE",
    "county": "legnicki",
    "community": "Miłkowice",
    "place": "MIŁKOWICE",
    "lon": "16.063021",
    "lat": "51.254808"
  },
  {
    "id": 233726,
    "ordinalNumber": "137",
    "facilityName": "PUNKT SZCZEPIEŃ",
    "terc": "0209074",
    "address": "ANTONIEGO RYMSZY 3",
    "zipCode": "59-230",
    "voivodeship": "DOLNOŚLĄSKIE",
    "county": "legnicki",
    "community": "Prochowice",
    "place": "PROCHOWICE",
    "lon": "16.365615",
    "lat": "51.274788"
  },
  {
    "id": 233727,
    "ordinalNumber": "138",
    "facilityName": "OŚRODEK ZDROWIA W TYŃCU LEGNICKIM",
    "terc": "0209082",
    "address": "RUJA 54",
    "zipCode": "59-243",
    "voivodeship": "DOLNOŚLĄSKIE",
    "county": "legnicki",
    "community": "Ruja",
    "place": "TYNIEC LEGNICKI",
    "lon": "16.396663",
    "lat": "51.157287"
  },
  {
    "id": 233728,
    "ordinalNumber": "139",
    "facilityName": "PUNKT SZCZEPIEŃ",
    "terc": "0210021",
    "address": "MARSZAŁKA JÓZEFA PIŁSUDSKIEGO 33",
    "zipCode": "59-850",
    "voivodeship": "DOLNOŚLĄSKIE",
    "county": "lubański",
    "community": "Świeradów-Zdrój",
    "place": "ŚWIERADÓW-ZDRÓJ",
    "lon": "15.33896",
    "lat": "50.907048"
  },
  {
    "id": 233729,
    "ordinalNumber": "140",
    "facilityName": "PRAKTYKA LEKARZA RODZINNEGO",
    "terc": "0210034",
    "address": "BAWOROWO, 67",
    "zipCode": "59-820",
    "voivodeship": "DOLNOŚLĄSKIE",
    "county": "lubański",
    "community": "Leśna",
    "place": "LEŚNA",
    "lon": "15.263888",
    "lat": "51.027438"
  },
  {
    "id": 233730,
    "ordinalNumber": "141",
    "facilityName": "OŚRODEK ZDROWIA W POBIEDNEJ",
    "terc": "0210035",
    "address": "NOWOMIEJSKA 29",
    "zipCode": "59-814",
    "voivodeship": "DOLNOŚLĄSKIE",
    "county": "lubański",
    "community": "Leśna",
    "place": "POBIEDNA",
    "lon": "15.295242",
    "lat": "50.937204"
  },
  {
    "id": 233731,
    "ordinalNumber": "142",
    "facilityName": "PUNKT SZCZEPIEŃ",
    "terc": "0210042",
    "address": "ZAWIDOWSKA 4",
    "zipCode": "59-800",
    "voivodeship": "DOLNOŚLĄSKIE",
    "county": "lubański",
    "community": "Lubań",
    "place": "LUBAŃ",
    "lon": "15.272202",
    "lat": "51.11656"
  },
  {
    "id": 233732,
    "ordinalNumber": "143",
    "facilityName": "PORADNIA LEKARZA POZ",
    "terc": "0210054",
    "address": "WOLNOŚCI 21",
    "zipCode": "59-830",
    "voivodeship": "DOLNOŚLĄSKIE",
    "county": "lubański",
    "community": "Olszyna",
    "place": "OLSZYNA",
    "lon": "15.3754398",
    "lat": "51.065706"
  },
  {
    "id": 233733,
    "ordinalNumber": "144",
    "facilityName": "GABINET DIAGNOSTYCZNO - ZABIEGOWY",
    "terc": "0210062",
    "address": "ZAWIDOWSKA 4",
    "zipCode": "59-800",
    "voivodeship": "DOLNOŚLĄSKIE",
    "county": "lubański",
    "community": "Platerówka",
    "place": "LUBAŃ",
    "lon": "15.272202",
    "lat": "51.11656"
  },
  {
    "id": 233734,
    "ordinalNumber": "145",
    "facilityName": "PRAKTYKA LEKARZA RODZINNEGO PIOTR SZMIGIEL",
    "terc": "0210072",
    "address": "SIEKIERCZYN 341",
    "zipCode": "59-818",
    "voivodeship": "DOLNOŚLĄSKIE",
    "county": "lubański",
    "community": "Siekierczyn",
    "place": "SIEKIERCZYN",
    "lon": "15.189323",
    "lat": "51.105644"
  },
  {
    "id": 233735,
    "ordinalNumber": "146",
    "facilityName": "PRAKTYKA LEKARZA RODZINNEGO MARIA SZMIGIEL",
    "terc": "0210072",
    "address": "JANA PAWŁA II 2",
    "zipCode": "59-800",
    "voivodeship": "DOLNOŚLĄSKIE",
    "county": "lubański",
    "community": "Siekierczyn",
    "place": "ZARĘBA",
    "lon": "15.236338",
    "lat": "51.105728"
  },
  {
    "id": 233736,
    "ordinalNumber": "147",
    "facilityName": "PUNKT SZCZEPIEŃ",
    "terc": "0211011",
    "address": "MARII SKŁODOWSKIEJ-CURIE 70",
    "zipCode": "59-300",
    "voivodeship": "DOLNOŚLĄSKIE",
    "county": "lubiński",
    "community": "Lubin",
    "place": "LUBIN",
    "lon": "16.192772",
    "lat": "51.40905"
  },
  {
    "id": 233737,
    "ordinalNumber": "148",
    "facilityName": "PUNKT SZCZEPIEŃ",
    "terc": "0211011",
    "address": "SŁONECZNA 1",
    "zipCode": "59-300",
    "voivodeship": "DOLNOŚLĄSKIE",
    "county": "lubiński",
    "community": "Lubin",
    "place": "LUBIN",
    "lon": "16.20277",
    "lat": "51.401775"
  },
  {
    "id": 233738,
    "ordinalNumber": "149",
    "facilityName": "PRZYCHODNIA NR 1",
    "terc": "0211011",
    "address": "ARMII KRAJOWEJ 35",
    "zipCode": "59-300",
    "voivodeship": "DOLNOŚLĄSKIE",
    "county": "lubiński",
    "community": "Lubin",
    "place": "LUBIN",
    "lon": "16.207424",
    "lat": "51.403546"
  },
  {
    "id": 233739,
    "ordinalNumber": "150",
    "facilityName": "PRZYCHODNIA NR 2",
    "terc": "0211011",
    "address": "WYSZYŃSKIEGO 6",
    "zipCode": "59-300",
    "voivodeship": "DOLNOŚLĄSKIE",
    "county": "lubiński",
    "community": "Lubin",
    "place": "LUBIN",
    "lon": "16.2067",
    "lat": "51.386721"
  },
  {
    "id": 233740,
    "ordinalNumber": "151",
    "facilityName": "PRZYCHODNIA NR 3",
    "terc": "0211011",
    "address": "GWARKÓW 82",
    "zipCode": "59-300",
    "voivodeship": "DOLNOŚLĄSKIE",
    "county": "lubiński",
    "community": "Lubin",
    "place": "LUBIN",
    "lon": "16.174803",
    "lat": "51.406911"
  },
  {
    "id": 233741,
    "ordinalNumber": "152",
    "facilityName": "REGIONALNE CENTRUM ZDROWIA SPÓŁKA Z OGRANICZONĄ ODPOWIEDZIALNOŚCIĄ",
    "terc": "0211011",
    "address": "GEN.JÓZEFA BEMA 5-6",
    "zipCode": "59-300",
    "voivodeship": "DOLNOŚLĄSKIE",
    "county": "lubiński",
    "community": "Lubin",
    "place": "LUBIN",
    "lon": "16.1977087",
    "lat": "51.4009111"
  },
  {
    "id": 233742,
    "ordinalNumber": "153",
    "facilityName": "CENTRUM DIAGNOSTYCZNO TERAPEUTYCZNE MEDICUS",
    "terc": "0211011",
    "address": "LEŚNA 8",
    "zipCode": "59-300",
    "voivodeship": "DOLNOŚLĄSKIE",
    "county": "lubiński",
    "community": "Lubin",
    "place": "LUBIN",
    "lon": "16.203515",
    "lat": "51.383741"
  },
  {
    "id": 233743,
    "ordinalNumber": "154",
    "facilityName": "MIEDZIOWE CENTRUM ZDROWIA SA",
    "terc": "0211011",
    "address": "MARII SKŁODOWSKIEJ-CURIE 74",
    "zipCode": "59-301",
    "voivodeship": "DOLNOŚLĄSKIE",
    "county": "lubiński",
    "community": "Lubin",
    "place": "LUBIN",
    "lon": "16.19364",
    "lat": "51.410091"
  },
  {
    "id": 233744,
    "ordinalNumber": "155",
    "facilityName": "GABINET ZABIEGOWY",
    "terc": "0211011",
    "address": "MARII SKŁODOWSKIEJ-CURIE 54",
    "zipCode": "59-301",
    "voivodeship": "DOLNOŚLĄSKIE",
    "county": "lubiński",
    "community": "Lubin",
    "place": "LUBIN",
    "lon": "16.19364",
    "lat": "51.410091"
  },
  {
    "id": 233745,
    "ordinalNumber": "156",
    "facilityName": "PUNKT SZCZEPIEŃ",
    "terc": "0211022",
    "address": "1 MAJA 12",
    "zipCode": "59-307",
    "voivodeship": "DOLNOŚLĄSKIE",
    "county": "lubiński",
    "community": "Lubin",
    "place": "RASZÓWKA",
    "lon": "16.1824059",
    "lat": "51.304238"
  },
  {
    "id": 233746,
    "ordinalNumber": "157",
    "facilityName": "PUNKT SZCZEPIEŃ",
    "terc": "0211032",
    "address": "POLNA 3",
    "zipCode": "59-305",
    "voivodeship": "DOLNOŚLĄSKIE",
    "county": "lubiński",
    "community": "Rudna",
    "place": "RUDNA",
    "lon": "16.259207",
    "lat": "51.510834"
  },
  {
    "id": 233747,
    "ordinalNumber": "158",
    "facilityName": "PUNKT SZCZEPIEŃ",
    "terc": "0211032",
    "address": "PARKOWA 1",
    "zipCode": "59-337",
    "voivodeship": "DOLNOŚLĄSKIE",
    "county": "lubiński",
    "community": "Rudna",
    "place": "CHOBIENIA",
    "lon": "16.445398",
    "lat": "51.54233"
  },
  {
    "id": 233748,
    "ordinalNumber": "159",
    "facilityName": "PUNKT SZCZEPIEŃ",
    "terc": "0211044",
    "address": "WŁADYSŁAWA JAGIEŁŁY 2",
    "zipCode": "59-330",
    "voivodeship": "DOLNOŚLĄSKIE",
    "county": "lubiński",
    "community": "Ścinawa",
    "place": "ŚCINAWA",
    "lon": "16.429415",
    "lat": "51.414618"
  },
  {
    "id": 233749,
    "ordinalNumber": "160",
    "facilityName": "GABINET POZ",
    "terc": "0212014",
    "address": "MALOWNICZA 1",
    "zipCode": "59-620",
    "voivodeship": "DOLNOŚLĄSKIE",
    "county": "lwówecki",
    "community": "Gryfów Śląski",
    "place": "GRYFÓW ŚLĄSKI",
    "lon": "15.4122556",
    "lat": "51.0305423"
  },
  {
    "id": 233750,
    "ordinalNumber": "161",
    "facilityName": "NIEPUBLICZNY ZAKŁAD OPIEKI ZDROWOTNEJ LUBOMED SPÓŁKA CYWILNA DARIUSZ DĄBROWSKI, MAGDALENA DĄBROWSKA",
    "terc": "0212024",
    "address": "GRYFIOGÓRSKA 6",
    "zipCode": "59-623",
    "voivodeship": "DOLNOŚLĄSKIE",
    "county": "lwówecki",
    "community": "Lubomierz",
    "place": "LUBOMIERZ",
    "lon": "15.50172",
    "lat": "51.014889"
  },
  {
    "id": 233751,
    "ordinalNumber": "162",
    "facilityName": "PUNKT SZCZEPIEŃ",
    "terc": "0212034",
    "address": "GUSTAWA MORCINKA 7",
    "zipCode": "59-600",
    "voivodeship": "DOLNOŚLĄSKIE",
    "county": "lwówecki",
    "community": "Lwówek Śląski",
    "place": "LWÓWEK ŚLĄSKI",
    "lon": "15.585834",
    "lat": "51.111867"
  },
  {
    "id": 233752,
    "ordinalNumber": "163",
    "facilityName": "CENTRUM MEDYCZNE MEDVITA",
    "terc": "0212034",
    "address": "ROMUALDA TRAUGUTTA 1",
    "zipCode": "59-600",
    "voivodeship": "DOLNOŚLĄSKIE",
    "county": "lwówecki",
    "community": "Lwówek Śląski",
    "place": "LWÓWEK ŚLĄSKI",
    "lon": "15.584528",
    "lat": "51.109886"
  },
  {
    "id": 233753,
    "ordinalNumber": "164",
    "facilityName": "PUNKT SZCZEPIEŃ",
    "terc": "0212044",
    "address": "KPT. STANISŁAWA BETLEJA 15A",
    "zipCode": "59-630",
    "voivodeship": "DOLNOŚLĄSKIE",
    "county": "lwówecki",
    "community": "Mirsk",
    "place": "MIRSK",
    "lon": "15.382874",
    "lat": "50.971838"
  },
  {
    "id": 233754,
    "ordinalNumber": "165",
    "facilityName": "SAMODZIELNY PUBLICZNY ZAKŁAD OPIEKI ZDROWOTNEJ GMINY MIRSK",
    "terc": "0212044",
    "address": "ADAMA MICKIEWICZA 36",
    "zipCode": "59-630",
    "voivodeship": "DOLNOŚLĄSKIE",
    "county": "lwówecki",
    "community": "Mirsk",
    "place": "MIRSK",
    "lon": "15.374205",
    "lat": "50.971705"
  },
  {
    "id": 233755,
    "ordinalNumber": "166",
    "facilityName": "PORADNIA LEKARZA POZ",
    "terc": "0212054",
    "address": "OGRODOWA 8",
    "zipCode": "59-610",
    "voivodeship": "DOLNOŚLĄSKIE",
    "county": "lwówecki",
    "community": "Wleń",
    "place": "WLEŃ",
    "lon": "15.6734133",
    "lat": "51.0154373"
  },
  {
    "id": 233756,
    "ordinalNumber": "167",
    "facilityName": "PRZYCHODNIA LEKARSKA \"ESKULAP",
    "terc": "0213012",
    "address": "OGRODOWA 1A",
    "zipCode": "56-330",
    "voivodeship": "DOLNOŚLĄSKIE",
    "county": "milicki",
    "community": "Cieszków",
    "place": "CIESZKÓW",
    "lon": "17.353572",
    "lat": "51.625232"
  },
  {
    "id": 233757,
    "ordinalNumber": "168",
    "facilityName": "GABINET ZABIEGOWY",
    "terc": "0213022",
    "address": "PARKOWA 37",
    "zipCode": "56-320",
    "voivodeship": "DOLNOŚLĄSKIE",
    "county": "milicki",
    "community": "Krośnice",
    "place": "KROŚNICE",
    "lon": "17.349458",
    "lat": "51.477156"
  },
  {
    "id": 233758,
    "ordinalNumber": "169",
    "facilityName": "GABINET DIAGNOSTYCZNO - ZABIEGOWY",
    "terc": "0213022",
    "address": "WROCŁAWSKA 41",
    "zipCode": "56-321",
    "voivodeship": "DOLNOŚLĄSKIE",
    "county": "milicki",
    "community": "Krośnice",
    "place": "BUKOWICE",
    "lon": "17.360999",
    "lat": "51.395833"
  },
  {
    "id": 233759,
    "ordinalNumber": "170",
    "facilityName": "PUNKT SZCZEPIEŃ",
    "terc": "0213034",
    "address": "LIPOWA 2",
    "zipCode": "56-300",
    "voivodeship": "DOLNOŚLĄSKIE",
    "county": "milicki",
    "community": "Milicz",
    "place": "MILICZ",
    "lon": "17.271252",
    "lat": "51.530233"
  },
  {
    "id": 233760,
    "ordinalNumber": "171",
    "facilityName": "GABINET SZCZEPIEŃ",
    "terc": "0213034",
    "address": "GRZYBOWA 1",
    "zipCode": "56-300",
    "voivodeship": "DOLNOŚLĄSKIE",
    "county": "milicki",
    "community": "Milicz",
    "place": "MILICZ",
    "lon": "17.261339",
    "lat": "51.517555"
  },
  {
    "id": 233761,
    "ordinalNumber": "172",
    "facilityName": "MILICKIE CENTRUM ZDROWIA SPÓŁKA Z OGRANICZONĄ ODPOWIEDZIALNOŚCIĄ SPÓŁKA KOMANDYTOWA",
    "terc": "0213034",
    "address": "MIKOŁAJA KOPERNIKA 3",
    "zipCode": "56-300",
    "voivodeship": "DOLNOŚLĄSKIE",
    "county": "milicki",
    "community": "Milicz",
    "place": "MILICZ",
    "lon": "17.270482",
    "lat": "51.522949"
  },
  {
    "id": 233762,
    "ordinalNumber": "173",
    "facilityName": "NIEPUBLICZNY ZAKŁAD OPIEKI ZDROWOTNEJ \"ALBUS\"",
    "terc": "0213035",
    "address": "OGRODOWA 14B",
    "zipCode": "56-300",
    "voivodeship": "DOLNOŚLĄSKIE",
    "county": "milicki",
    "community": "Milicz",
    "place": "SUŁÓW",
    "lon": "17.171099",
    "lat": "51.501254"
  },
  {
    "id": 233763,
    "ordinalNumber": "174",
    "facilityName": "PUNKT SZCZEPIEŃ",
    "terc": "0213035",
    "address": "GĄDKOWICE 49",
    "zipCode": "56-300",
    "voivodeship": "DOLNOŚLĄSKIE",
    "county": "milicki",
    "community": "Milicz",
    "place": "GĄDKOWICE",
    "lon": "17.4499054",
    "lat": "51.5695319"
  },
  {
    "id": 233764,
    "ordinalNumber": "175",
    "facilityName": "SAMODZIELNY ZESPÓŁ PUBLICZNYCH ZAKŁADÓW OPIEKI ZDROWOTNEJ W OLEŚNICY",
    "terc": "0214011",
    "address": "GEN. J. HALLERA 25",
    "zipCode": "56-400",
    "voivodeship": "DOLNOŚLĄSKIE",
    "county": "oleśnicki",
    "community": "Oleśnica",
    "place": "OLEŚNICA",
    "lon": "17.383261",
    "lat": "51.207472"
  },
  {
    "id": 233765,
    "ordinalNumber": "176",
    "facilityName": "PUNKT SZCZEPIEŃ",
    "terc": "0214011",
    "address": "KOPERNIKA 12",
    "zipCode": "56-400",
    "voivodeship": "DOLNOŚLĄSKIE",
    "county": "oleśnicki",
    "community": "Oleśnica",
    "place": "OLEŚNICA",
    "lon": "17.403366",
    "lat": "51.212382"
  },
  {
    "id": 233766,
    "ordinalNumber": "177",
    "facilityName": "EMC INSTYTUT MEDYCZNY SPÓŁKA AKCYJNA-PRZYCHODNIA 1 PRZY DASZYŃSKIEGO",
    "terc": "0214011",
    "address": "DASZYŃSKIEGO 2A",
    "zipCode": "56-400",
    "voivodeship": "DOLNOŚLĄSKIE",
    "county": "oleśnicki",
    "community": "Oleśnica",
    "place": "OLEŚCNICA",
    "lon": "17.388172",
    "lat": "51.207082"
  },
  {
    "id": 233767,
    "ordinalNumber": "178",
    "facilityName": "PRZYCHODNIA REJONOWA W BIERUTOWIE",
    "terc": "0214024",
    "address": "JULIUSZA SŁOWACKIEGO 2",
    "zipCode": "56-420",
    "voivodeship": "DOLNOŚLĄSKIE",
    "county": "oleśnicki",
    "community": "Bierutów",
    "place": "BIERUTÓW",
    "lon": "17.547092",
    "lat": "51.126013"
  },
  {
    "id": 233768,
    "ordinalNumber": "179",
    "facilityName": "PUNKT SZCZEPIEŃ",
    "terc": "0214032",
    "address": "WOJSKA POLSKIEGO 22",
    "zipCode": "56-410",
    "voivodeship": "DOLNOŚLĄSKIE",
    "county": "oleśnicki",
    "community": "Dobroszyce",
    "place": "DOBROSZYCE",
    "lon": "17.339626",
    "lat": "51.2675539"
  },
  {
    "id": 233769,
    "ordinalNumber": "180",
    "facilityName": "GABINET ZABIEGOWY",
    "terc": "0214032",
    "address": "DOBRZEŃ 9",
    "zipCode": "56-410",
    "voivodeship": "DOLNOŚLĄSKIE",
    "county": "oleśnicki",
    "community": "Dobroszyce",
    "place": "DOBRZEŃ",
    "lon": "17.29417",
    "lat": "51.241547"
  },
  {
    "id": 233770,
    "ordinalNumber": "181",
    "facilityName": "SAMODZIELNY PUBLICZNY ZAKŁĄD OPIEKI ZDROWOTNEJ GMINNY OŚRODEK ZDROWIA",
    "terc": "0214042",
    "address": "SŁONECZNA 7A",
    "zipCode": "56-504",
    "voivodeship": "DOLNOŚLĄSKIE",
    "county": "oleśnicki",
    "community": "Dziadowa Kłoda",
    "place": "DZIADOWA KŁODA",
    "lon": "17.710458",
    "lat": "51.232722"
  },
  {
    "id": 233771,
    "ordinalNumber": "182",
    "facilityName": "PUNKT SZCZEPIEŃ",
    "terc": "0214054",
    "address": "SYCOWSKA 34",
    "zipCode": "56-513",
    "voivodeship": "DOLNOŚLĄSKIE",
    "county": "oleśnicki",
    "community": "Międzybórz",
    "place": "MIĘDZYBÓRZ",
    "lon": "17.6688",
    "lat": "51.392501"
  },
  {
    "id": 233772,
    "ordinalNumber": "183",
    "facilityName": "PUNKT SZCZEPIEŃ",
    "terc": "0214074",
    "address": "WROCŁAWSKA 2",
    "zipCode": "56-500",
    "voivodeship": "DOLNOŚLĄSKIE",
    "county": "oleśnicki",
    "community": "Syców",
    "place": "SYCÓW",
    "lon": "17.716293",
    "lat": "51.305896"
  },
  {
    "id": 233773,
    "ordinalNumber": "184",
    "facilityName": "SAMODZIELNY ZESPÓŁ PUBLICZNYCH ZAKŁADÓW OPIEKI ZDROWOTNEJ W TWARDOGÓRZE",
    "terc": "0214084",
    "address": "LUDWIKA WARYŃSKIEGO 10",
    "zipCode": "56-416",
    "voivodeship": "DOLNOŚLĄSKIE",
    "county": "oleśnicki",
    "community": "Twardogóra",
    "place": "TWARDOGÓRA",
    "lon": "17.472332",
    "lat": "51.367355"
  },
  {
    "id": 233774,
    "ordinalNumber": "185",
    "facilityName": "PORADNIA LEKARZA RODZINNEGO",
    "terc": "0215011",
    "address": "BOLESŁAWA CHROBREGO 23B 23B",
    "zipCode": "55-200",
    "voivodeship": "DOLNOŚLĄSKIE",
    "county": "oławski",
    "community": "Oława",
    "place": "OŁAWA",
    "lon": "17.301842",
    "lat": "50.943618"
  },
  {
    "id": 233775,
    "ordinalNumber": "186",
    "facilityName": "PRZYCHODNIA LEKARSKA MEDICA S.C.",
    "terc": "0215011",
    "address": "11 LISTOPADA 14",
    "zipCode": "55-200",
    "voivodeship": "DOLNOŚLĄSKIE",
    "county": "oławski",
    "community": "Oława",
    "place": "OŁAWA",
    "lon": "17.296014",
    "lat": "50.940498"
  },
  {
    "id": 233776,
    "ordinalNumber": "187",
    "facilityName": "PRZYCHODNIA HIPOKRATES",
    "terc": "0215011",
    "address": "WARSZAWSKA 30",
    "zipCode": "55-200",
    "voivodeship": "DOLNOŚLĄSKIE",
    "county": "oławski",
    "community": "Oława",
    "place": "OŁAWA",
    "lon": "17.287521",
    "lat": "50.952053"
  },
  {
    "id": 233777,
    "ordinalNumber": "188",
    "facilityName": "ZOZ OŁAWA",
    "terc": "0215011",
    "address": "KRZYSZTOFA KAMILA BACZYŃSKIEGO 1",
    "zipCode": "55-200",
    "voivodeship": "DOLNOŚLĄSKIE",
    "county": "oławski",
    "community": "Oława",
    "place": "OŁAWA",
    "lon": "17.287006",
    "lat": "50.952463"
  },
  {
    "id": 233778,
    "ordinalNumber": "189",
    "facilityName": "PORADNIA (GABINET) LEKARZA RODZINNEGO",
    "terc": "0215022",
    "address": "WIERZBNO 1A",
    "zipCode": "55-216",
    "voivodeship": "DOLNOŚLĄSKIE",
    "county": "oławski",
    "community": "Domaniów",
    "place": "WIERZBNO",
    "lon": "17.1781556351373",
    "lat": "50.9308258412972"
  },
  {
    "id": 233779,
    "ordinalNumber": "190",
    "facilityName": "PRZYCHODNIA LEKARSKA MEDICOR S.C.",
    "terc": "0215034",
    "address": "BOŻKA 11",
    "zipCode": "55-220",
    "voivodeship": "DOLNOŚLĄSKIE",
    "county": "oławski",
    "community": "Jelcz-Laskowice",
    "place": "JELCZ-LASKOWICE",
    "lon": "17.337603",
    "lat": "51.033931"
  },
  {
    "id": 233780,
    "ordinalNumber": "191",
    "facilityName": "GABINET ZABIEGOWY I PUNKT SZCZEPIEŃ",
    "terc": "0215034",
    "address": "LILIOWA 3A",
    "zipCode": "55-220",
    "voivodeship": "DOLNOŚLĄSKIE",
    "county": "oławski",
    "community": "Jelcz-Laskowice",
    "place": "JELCZ-LASKOWICE",
    "lon": "17.334727",
    "lat": "51.035083"
  },
  {
    "id": 233781,
    "ordinalNumber": "192",
    "facilityName": "PRZYCHODNIA REJONOWO-SPECJALISTYCZNA SP. Z O.O.",
    "terc": "0215034",
    "address": "BOŻKA 13",
    "zipCode": "55-231",
    "voivodeship": "DOLNOŚLĄSKIE",
    "county": "oławski",
    "community": "Jelcz-Laskowice",
    "place": "JELCZ-LASKOWICE",
    "lon": "17.3369558",
    "lat": "51.0330356"
  },
  {
    "id": 233782,
    "ordinalNumber": "193",
    "facilityName": "CENTRUM DIAGNOSTYCZNO TERAPEUTYCZNE MEDICUS",
    "terc": "0216014",
    "address": "3 MAJA 2",
    "zipCode": "59-140",
    "voivodeship": "DOLNOŚLĄSKIE",
    "county": "polkowicki",
    "community": "Chocianów",
    "place": "CHOCIANÓW",
    "lon": "15.901985",
    "lat": "51.42006"
  },
  {
    "id": 233783,
    "ordinalNumber": "194",
    "facilityName": "GMINNY OŚRODEK ZDROWIA W GAWORZYCACH",
    "terc": "0216022",
    "address": "DWORCOWA 200",
    "zipCode": "59-180",
    "voivodeship": "DOLNOŚLĄSKIE",
    "county": "polkowicki",
    "community": "Gaworzyce",
    "place": "GAWORZYCE",
    "lon": "15.880171",
    "lat": "51.622899"
  },
  {
    "id": 233784,
    "ordinalNumber": "195",
    "facilityName": "MIEDZIOWE CENTRUM ZDROWIA SA",
    "terc": "0216032",
    "address": "ZIELONA 3A",
    "zipCode": "59-150",
    "voivodeship": "DOLNOŚLĄSKIE",
    "county": "polkowicki",
    "community": "Grębocice",
    "place": "GRĘBOCICE",
    "lon": "16.17147",
    "lat": "51.600804"
  },
  {
    "id": 233785,
    "ordinalNumber": "196",
    "facilityName": "POLKOWICKIE CENTRUM USŁUG ZDROWOTNYCH-ZAKŁAD OPIEKI ZDROWOTNEJ S.A.",
    "terc": "0216044",
    "address": "KARDYNAŁA B. KOMINKA 7",
    "zipCode": "59-100",
    "voivodeship": "DOLNOŚLĄSKIE",
    "county": "polkowicki",
    "community": "Polkowice",
    "place": "POLKOWICE",
    "lon": "16.064864",
    "lat": "51.507576"
  },
  {
    "id": 233786,
    "ordinalNumber": "197",
    "facilityName": "PORADNIA (GABINET) LEKARZA PODSTAWOWEJ OPIEKI ZDROWOTNEJ",
    "terc": "0216054",
    "address": "DŁUGA 4",
    "zipCode": "59-170",
    "voivodeship": "DOLNOŚLĄSKIE",
    "county": "polkowicki",
    "community": "Przemków",
    "place": "PRZEMKÓW",
    "lon": "15.789519",
    "lat": "51.530482"
  },
  {
    "id": 233787,
    "ordinalNumber": "198",
    "facilityName": "PUNKT SZCZEPIEŃ",
    "terc": "0216062",
    "address": "GŁOGOWSKA 43",
    "zipCode": "59-160",
    "voivodeship": "DOLNOŚLĄSKIE",
    "county": "polkowicki",
    "community": "Radwanice",
    "place": "RADWANICE",
    "lon": "15.94863",
    "lat": "51.574168"
  },
  {
    "id": 233788,
    "ordinalNumber": "199",
    "facilityName": "K-MED NZOZ",
    "terc": "0217012",
    "address": "PARKOWA 4",
    "zipCode": "57-160",
    "voivodeship": "DOLNOŚLĄSKIE",
    "county": "strzeliński",
    "community": "Borów",
    "place": "BORÓW",
    "lon": "16.988586",
    "lat": "50.883829"
  },
  {
    "id": 233789,
    "ordinalNumber": "200",
    "facilityName": "PRAKTYKA LEKARZA RODZINNEGO",
    "terc": "0217012",
    "address": "STRZELIŃSKA 22",
    "zipCode": "57-160",
    "voivodeship": "DOLNOŚLĄSKIE",
    "county": "strzeliński",
    "community": "Borów",
    "place": "BOREK STRZELIŃSKI",
    "lon": "17.066287",
    "lat": "50.865739"
  },
  {
    "id": 233790,
    "ordinalNumber": "201",
    "facilityName": "SP ZOZ PRUSY",
    "terc": "0217022",
    "address": "POCZTOWA 33",
    "zipCode": "57-150",
    "voivodeship": "DOLNOŚLĄSKIE",
    "county": "strzeliński",
    "community": "Kondratowice",
    "place": "PRUSY",
    "lon": "16.937335",
    "lat": "50.759408"
  },
  {
    "id": 233791,
    "ordinalNumber": "202",
    "facilityName": "SPG ZOZ W PRZEWORNIE",
    "terc": "0217032",
    "address": "POCZTOWA 6",
    "zipCode": "57-130",
    "voivodeship": "DOLNOŚLĄSKIE",
    "county": "strzeliński",
    "community": "Przeworno",
    "place": "PRZEWORNO",
    "lon": "17.166164",
    "lat": "50.68583"
  },
  {
    "id": 233792,
    "ordinalNumber": "203",
    "facilityName": "ELION PRAKTYKA MEDYCZNA",
    "terc": "0217044",
    "address": "J. IG. KRASZEWSKIEGO 20/3",
    "zipCode": "57-100",
    "voivodeship": "DOLNOŚLĄSKIE",
    "county": "strzeliński",
    "community": "Strzelin",
    "place": "STRZELIN",
    "lon": "17.074384",
    "lat": "50.784652"
  },
  {
    "id": 233793,
    "ordinalNumber": "204",
    "facilityName": "PORADNIA OGÓLNA",
    "terc": "0217044",
    "address": "PLAC I-GO MAJA 10",
    "zipCode": "57-100",
    "voivodeship": "DOLNOŚLĄSKIE",
    "county": "strzeliński",
    "community": "Strzelin",
    "place": "STRZELIN",
    "lon": "17.064519",
    "lat": "50.7802049"
  },
  {
    "id": 233794,
    "ordinalNumber": "205",
    "facilityName": "PUBLICZNY ZAKŁAD LECZNICTWA AMBULATORYJNEGO W STRZELINIE",
    "terc": "0217044",
    "address": "ADAMA MICKIEWICZA 20",
    "zipCode": "57-100",
    "voivodeship": "DOLNOŚLĄSKIE",
    "county": "strzeliński",
    "community": "Strzelin",
    "place": "STRZELIN",
    "lon": "17.063604",
    "lat": "50.784093"
  },
  {
    "id": 233795,
    "ordinalNumber": "206",
    "facilityName": "PUNKT SZCZEPIEŃ",
    "terc": "0217054",
    "address": "POCZTOWA 6",
    "zipCode": "57-120",
    "voivodeship": "DOLNOŚLĄSKIE",
    "county": "strzeliński",
    "community": "Wiązów",
    "place": "WIĄZÓW",
    "lon": "17.202446",
    "lat": "50.81089"
  },
  {
    "id": 233796,
    "ordinalNumber": "207",
    "facilityName": "PUNKT SZCZEPIEŃ",
    "terc": "0217054",
    "address": "PLAC WOLNOŚCI 18",
    "zipCode": "57-120",
    "voivodeship": "DOLNOŚLĄSKIE",
    "county": "strzeliński",
    "community": "Wiązów",
    "place": "WIĄZÓW",
    "lon": "17.201381",
    "lat": "50.80222"
  },
  {
    "id": 233797,
    "ordinalNumber": "208",
    "facilityName": "ZAKŁAD USŁUG MEDYCZNYCH",
    "terc": "0218012",
    "address": "SZPITALNA 13",
    "zipCode": "55-311",
    "voivodeship": "DOLNOŚLĄSKIE",
    "county": "średzki",
    "community": "Kostomłoty",
    "place": "KOSTOMŁOTY",
    "lon": "16.615003",
    "lat": "51.046152"
  },
  {
    "id": 233798,
    "ordinalNumber": "209",
    "facilityName": "SAMODZIELNY PUBLICZNY ZAKŁAD OPIEKI ZDROWOTNEJ W MALCZYCACH",
    "terc": "0218022",
    "address": "ADAMA MICKIEWICZA 6",
    "zipCode": "55-320",
    "voivodeship": "DOLNOŚLĄSKIE",
    "county": "średzki",
    "community": "Malczyce",
    "place": "MALCZYCE",
    "lon": "16.49441",
    "lat": "51.220123"
  },
  {
    "id": 233799,
    "ordinalNumber": "210",
    "facilityName": "GABINET DIAGNOSTYCZNO - ZABIEGOWY",
    "terc": "0218032",
    "address": "KOŚCIUSZKI 37",
    "zipCode": "55-330",
    "voivodeship": "DOLNOŚLĄSKIE",
    "county": "średzki",
    "community": "Miękinia",
    "place": "LUTYNIA",
    "lon": "16.784301",
    "lat": "51.134633"
  },
  {
    "id": 233800,
    "ordinalNumber": "211",
    "facilityName": "PORADNIA LEKARZA RODZINNEGO",
    "terc": "0218032",
    "address": "LIPOWA 31",
    "zipCode": "55-330",
    "voivodeship": "DOLNOŚLĄSKIE",
    "county": "średzki",
    "community": "Miękinia",
    "place": "MIĘKINIA",
    "lon": "16.7345301",
    "lat": "51.1879424"
  },
  {
    "id": 233801,
    "ordinalNumber": "212",
    "facilityName": "PRAKTYKA LEKARZA RODZINNEGO - AGATA SŁAWIN SP. Z O.O., FILIA W PISARZOWICACH",
    "terc": "0218032",
    "address": "WROCŁAWSKA 22/1",
    "zipCode": "55-330",
    "voivodeship": "DOLNOŚLĄSKIE",
    "county": "średzki",
    "community": "Miękinia",
    "place": "PISARZOWICE",
    "lon": "16.8510871",
    "lat": "51.2097154"
  },
  {
    "id": 233802,
    "ordinalNumber": "213",
    "facilityName": "PUNKT SZCZEPIEŃ",
    "terc": "0218044",
    "address": "MOSTOWA 19",
    "zipCode": "55-300",
    "voivodeship": "DOLNOŚLĄSKIE",
    "county": "średzki",
    "community": "Środa Śląska",
    "place": "ŚRODA ŚLĄSKA",
    "lon": "16.586857",
    "lat": "51.16171"
  },
  {
    "id": 233803,
    "ordinalNumber": "214",
    "facilityName": "OSIR ŚRODA ŚLASKA",
    "terc": "0218044",
    "address": "I-GO MAJA 4",
    "zipCode": "55-300",
    "voivodeship": "DOLNOŚLĄSKIE",
    "county": "średzki",
    "community": "Środa Śląska",
    "place": "ŚRODA ŚLĄSKA",
    "lon": "16.60268",
    "lat": "51.16935"
  },
  {
    "id": 233804,
    "ordinalNumber": "215",
    "facilityName": "PRAKTYKA LEKARZA RODZINNEGO JACEK KRAJEWSKI",
    "terc": "0218052",
    "address": "UDANIN 88",
    "zipCode": "55-340",
    "voivodeship": "DOLNOŚLĄSKIE",
    "county": "średzki",
    "community": "Udanin",
    "place": "UDANIN",
    "lon": "16.4502744",
    "lat": "51.0377024"
  },
  {
    "id": 233805,
    "ordinalNumber": "216",
    "facilityName": "ARS MEDICA SPÓŁKA Z OGRANICZONĄ ODPOWIEDZIALNOŚCIĄ",
    "terc": "0219011",
    "address": "MARII KONOPNICKIEJ 4",
    "zipCode": "58-100",
    "voivodeship": "DOLNOŚLĄSKIE",
    "county": "świdnicki",
    "community": "Świdnica",
    "place": "ŚWIDNICA",
    "lon": "16.485641",
    "lat": "50.844564"
  },
  {
    "id": 233806,
    "ordinalNumber": "217",
    "facilityName": "NZOZ \"KOLMED\" S.C.",
    "terc": "0219011",
    "address": "KOLEJOWA 8",
    "zipCode": "58-100",
    "voivodeship": "DOLNOŚLĄSKIE",
    "county": "świdnicki",
    "community": "Świdnica",
    "place": "ŚWIDNICA",
    "lon": "16.480523",
    "lat": "50.841952"
  },
  {
    "id": 233807,
    "ordinalNumber": "218",
    "facilityName": "PUNKT SZCZEPIEŃ",
    "terc": "0219011",
    "address": "MIKOŁAJA KOPERNIKA 34A",
    "zipCode": "58-100",
    "voivodeship": "DOLNOŚLĄSKIE",
    "county": "świdnicki",
    "community": "Świdnica",
    "place": "ŚWIDNICA",
    "lon": "16.511853",
    "lat": "50.84031"
  },
  {
    "id": 233808,
    "ordinalNumber": "219",
    "facilityName": "PUNKT SZCZEPIEŃ",
    "terc": "0219011",
    "address": "STRZELIŃSKA 6",
    "zipCode": "58-100",
    "voivodeship": "DOLNOŚLĄSKIE",
    "county": "świdnicki",
    "community": "Świdnica",
    "place": "ŚWIDNICA",
    "lon": "16.512128",
    "lat": "50.830401"
  },
  {
    "id": 233809,
    "ordinalNumber": "220",
    "facilityName": "AR-VITA USŁUGI MEDYCZNE S.C. RYSZARD I ALICJA MOJZESOWICZ",
    "terc": "0219011",
    "address": "KLICZKOWSKA 37",
    "zipCode": "58-100",
    "voivodeship": "DOLNOŚLĄSKIE",
    "county": "świdnicki",
    "community": "Świdnica",
    "place": "ŚWIDNICA",
    "lon": "16.504273",
    "lat": "50.842816"
  },
  {
    "id": 233810,
    "ordinalNumber": "221",
    "facilityName": "ZESPÓŁ USŁUG MEDYCZNYCH \"MEDYK\" SPÓŁKA Z OGRANICZONĄ ODPOWIEDZIALNOŚCIĄ",
    "terc": "0219011",
    "address": "GDYŃSKA 25A",
    "zipCode": "58-100",
    "voivodeship": "DOLNOŚLĄSKIE",
    "county": "świdnicki",
    "community": "Świdnica",
    "place": "ŚWIDNICA",
    "lon": "16.488344",
    "lat": "50.849406"
  },
  {
    "id": 233811,
    "ordinalNumber": "222",
    "facilityName": "CENTRUM USŁUG MEDYCZNYCH \"ESKULAP\" SPÓŁKA Z OGRANICZONĄ ODPOWIEDZIALNOŚCIĄ, PRZEDSIĘBIORSTWO WYKONUJĄCE DZIAŁALNOŚĆ LECZNICZĄ",
    "terc": "0219011",
    "address": "UL. LUDWIKA ZAMENHOFA 47",
    "zipCode": "58-105",
    "voivodeship": "DOLNOŚLĄSKIE",
    "county": "świdnicki",
    "community": "Świdnica",
    "place": "ŚWIDNICA",
    "lon": "16.472652",
    "lat": "50.846272"
  },
  {
    "id": 233812,
    "ordinalNumber": "223",
    "facilityName": "PUNKT SZCZEPIEŃ",
    "terc": "0219011",
    "address": "MIESZKA I 10",
    "zipCode": "58-100",
    "voivodeship": "DOLNOŚLĄSKIE",
    "county": "świdnicki",
    "community": "Świdnica",
    "place": "ŚWIDNICA",
    "lon": "16.49893",
    "lat": "50.84274"
  },
  {
    "id": 233813,
    "ordinalNumber": "224",
    "facilityName": "SALMED PRZYCHODNIA SPECJALISTYCZNA",
    "terc": "0219021",
    "address": "KRÓLOWEJ ELŻBIETY 84",
    "zipCode": "58-160",
    "voivodeship": "DOLNOŚLĄSKIE",
    "county": "świdnicki",
    "community": "Świebodzice",
    "place": "ŚWIEBODZICE",
    "lon": "16.316615",
    "lat": "50.867973"
  },
  {
    "id": 233814,
    "ordinalNumber": "225",
    "facilityName": "MIKULICZ SPÓŁKA Z OGRANICZONĄ ODPOWIEDZIALNOŚCIĄ",
    "terc": "0219021",
    "address": "M. SKŁODOWSKIEJ-CURIE 3-7",
    "zipCode": "58-160",
    "voivodeship": "DOLNOŚLĄSKIE",
    "county": "świdnicki",
    "community": "Świebodzice",
    "place": "ŚWIEBODZICE",
    "lon": "16.3227439",
    "lat": "50.8539323"
  },
  {
    "id": 233815,
    "ordinalNumber": "226",
    "facilityName": "PUNKT SZCZEPIEŃ",
    "terc": "0219021",
    "address": "ALEJE LIPOWE 15",
    "zipCode": "58-160",
    "voivodeship": "DOLNOŚLĄSKIE",
    "county": "świdnicki",
    "community": "Świebodzice",
    "place": "ŚWIEBODZICE",
    "lon": "16.326323",
    "lat": "50.859923"
  },
  {
    "id": 233816,
    "ordinalNumber": "227",
    "facilityName": "PORADNIA LEKARZA RODZINNEGO",
    "terc": "0219032",
    "address": "JANA PAWŁA II 3",
    "zipCode": "58-173",
    "voivodeship": "DOLNOŚLĄSKIE",
    "county": "świdnicki",
    "community": "Dobromierz",
    "place": "ROZTOKA",
    "lon": "16.227889",
    "lat": "50.958721"
  },
  {
    "id": 233817,
    "ordinalNumber": "228",
    "facilityName": "SAMORZĄDOWA PRZYCHODNIA ZDROWIA W JAWORZYNIE ŚL.",
    "terc": "0219044",
    "address": "WESTERPLATTE 16",
    "zipCode": "58-140",
    "voivodeship": "DOLNOŚLĄSKIE",
    "county": "świdnicki",
    "community": "Jaworzyna Śląska",
    "place": "JAWORZYNA ŚLĄSKA",
    "lon": "16.4317891",
    "lat": "50.9165751"
  },
  {
    "id": 233818,
    "ordinalNumber": "229",
    "facilityName": "PUNKT SZCZEPIEŃ",
    "terc": "0219052",
    "address": "STAFFA 1",
    "zipCode": "58-124",
    "voivodeship": "DOLNOŚLĄSKIE",
    "county": "świdnicki",
    "community": "Marcinowice",
    "place": "MARCINOWICE",
    "lon": "16.582192",
    "lat": "50.879914"
  },
  {
    "id": 233819,
    "ordinalNumber": "230",
    "facilityName": "PUNKT SZCZEPIEŃ",
    "terc": "0219052",
    "address": "STRZELCE 36A",
    "zipCode": "58-124",
    "voivodeship": "DOLNOŚLĄSKIE",
    "county": "świdnicki",
    "community": "Marcinowice",
    "place": "STRZELCE",
    "lon": "16.665684",
    "lat": "50.910381"
  },
  {
    "id": 233820,
    "ordinalNumber": "231",
    "facilityName": "STRZEGOMSKIE CENTRUM MEDYCZNO-DIAGNOSTYCZNE SPÓŁKA Z OGRANICZONĄ ODPOWIEDZIALNOŚCIĄ",
    "terc": "0219064",
    "address": "WITOSA 7",
    "zipCode": "58-150",
    "voivodeship": "DOLNOŚLĄSKIE",
    "county": "świdnicki",
    "community": "Strzegom",
    "place": "STRZEGOM",
    "lon": "16.344166",
    "lat": "50.966559"
  },
  {
    "id": 233821,
    "ordinalNumber": "232",
    "facilityName": "PORADNIA LEKARZA RODZINNEGO",
    "terc": "0219064",
    "address": "KOŚCIELNA 4",
    "zipCode": "58-150",
    "voivodeship": "DOLNOŚLĄSKIE",
    "county": "świdnicki",
    "community": "Strzegom",
    "place": "STRZEGOM",
    "lon": "16.347987",
    "lat": "50.960353"
  },
  {
    "id": 233822,
    "ordinalNumber": "233",
    "facilityName": "NIEPUBLICZNY ZAKŁAD OPIEKI ZDROWOTNEJ WIEJSKI OŚRODEK ZDROWIA LUTOMIA DOLNA",
    "terc": "0219072",
    "address": "LUTOMIA DOLNA 28",
    "zipCode": "58-113",
    "voivodeship": "DOLNOŚLĄSKIE",
    "county": "świdnicki",
    "community": "Świdnica",
    "place": "LUTOMIA DOLNA",
    "lon": "16.5296083",
    "lat": "50.7533636"
  },
  {
    "id": 233823,
    "ordinalNumber": "234",
    "facilityName": "MEDIMEX SP. Z O.O.",
    "terc": "0219072",
    "address": "SŁONECZNA 9",
    "zipCode": "58-125",
    "voivodeship": "DOLNOŚLĄSKIE",
    "county": "świdnicki",
    "community": "Świdnica",
    "place": "PSZENNO",
    "lon": "16.535801",
    "lat": "50.854359"
  },
  {
    "id": 233824,
    "ordinalNumber": "235",
    "facilityName": "NIEPUBLICZNY ZAKŁAD OPIEKI ZDROWOTNEJ \"MEDICUS\" SPÓŁKA Z OGRANICZONĄ ODPOWIEDZIALNOŚCIĄ",
    "terc": "0219084",
    "address": "ARMII KRAJOWEJ 56",
    "zipCode": "58-130",
    "voivodeship": "DOLNOŚLĄSKIE",
    "county": "świdnicki",
    "community": "Żarów",
    "place": "ŻARÓW",
    "lon": "16.49332",
    "lat": "50.942817"
  },
  {
    "id": 233825,
    "ordinalNumber": "236",
    "facilityName": "N.Z.O.Z.- PRAKTYKA LEK. RODZINNEGO A. GROCKA - WLAŹLAK",
    "terc": "0220014",
    "address": "TRZEBNICKA 37",
    "zipCode": "55-120",
    "voivodeship": "DOLNOŚLĄSKIE",
    "county": "trzebnicki",
    "community": "Oborniki Śląskie",
    "place": "OBORNIKI ŚLĄSKIE",
    "lon": "16.920787",
    "lat": "51.298421"
  },
  {
    "id": 233826,
    "ordinalNumber": "237",
    "facilityName": "PRAKTYKA LEKARZA RODZINNEGO A-MED",
    "terc": "0220014",
    "address": "TRZEBNICKA 37",
    "zipCode": "55-120",
    "voivodeship": "DOLNOŚLĄSKIE",
    "county": "trzebnicki",
    "community": "Oborniki Śląskie",
    "place": "OBORNIKI ŚLĄSKIE",
    "lon": "16.920787",
    "lat": "51.298421"
  },
  {
    "id": 233827,
    "ordinalNumber": "238",
    "facilityName": "PUNKT SZCZEPIEŃ",
    "terc": "0220014",
    "address": "TRZEBNICKA 37",
    "zipCode": "55-120",
    "voivodeship": "DOLNOŚLĄSKIE",
    "county": "trzebnicki",
    "community": "Oborniki Śląskie",
    "place": "OBORNIKI ŚLĄSKIE",
    "lon": "16.920787",
    "lat": "51.298421"
  },
  {
    "id": 233828,
    "ordinalNumber": "239",
    "facilityName": "PUNKT SZCZEPIEŃ",
    "terc": "0220014",
    "address": "TRZEBNICKA 49",
    "zipCode": "55-120",
    "voivodeship": "DOLNOŚLĄSKIE",
    "county": "trzebnicki",
    "community": "Oborniki Śląskie",
    "place": "OBORNIKI ŚLĄSKIE",
    "lon": "16.922934",
    "lat": "51.298057"
  },
  {
    "id": 233829,
    "ordinalNumber": "240",
    "facilityName": "NIEPUBLICZNY ZAKŁAD OPIEKI ZDROWOTNEJ PRAKTYKA LEKARZA RODZINNEGO JADWIGA HRYNIEWIECKA-ROPIJ",
    "terc": "0220014",
    "address": "TRZEBNICKA 37",
    "zipCode": "55-120",
    "voivodeship": "DOLNOŚLĄSKIE",
    "county": "trzebnicki",
    "community": "Oborniki Śląskie",
    "place": "OBORNIKI ŚLĄSKIE",
    "lon": "16.920787",
    "lat": "51.298421"
  },
  {
    "id": 233830,
    "ordinalNumber": "241",
    "facilityName": "OŚRODEK ZDROWIA PRUSICE",
    "terc": "0220024",
    "address": "ŻMIGRODZKA 22",
    "zipCode": "55-110",
    "voivodeship": "DOLNOŚLĄSKIE",
    "county": "trzebnicki",
    "community": "Prusice",
    "place": "PRUSICE",
    "lon": "16.95778",
    "lat": "51.37153"
  },
  {
    "id": 233831,
    "ordinalNumber": "242",
    "facilityName": "DOROTA KONOPACKA",
    "terc": "0220025",
    "address": "PRUSICKA 22A",
    "zipCode": "55-110",
    "voivodeship": "DOLNOŚLĄSKIE",
    "county": "trzebnicki",
    "community": "Prusice",
    "place": "SKOKOWA",
    "lon": "16.85503",
    "lat": "51.389385"
  },
  {
    "id": 233832,
    "ordinalNumber": "243",
    "facilityName": "PUNKT SZCZEPIEŃ",
    "terc": "0220034",
    "address": "ŚWIĘTEJ JADWIGI 27AB",
    "zipCode": "55-100",
    "voivodeship": "DOLNOŚLĄSKIE",
    "county": "trzebnicki",
    "community": "Trzebnica",
    "place": "TRZEBNICA",
    "lon": "17.0672333",
    "lat": "51.3085498"
  },
  {
    "id": 233833,
    "ordinalNumber": "244",
    "facilityName": "GMINNE CENTRUM MEDYCZNE TRZEBNICA - ZDRÓJ SPÓŁKA Z OGRANICZONĄ ODPOWIEDZIALNOŚCIĄ",
    "terc": "0220034",
    "address": "KOŚCIUSZKI 10",
    "zipCode": "55-100",
    "voivodeship": "DOLNOŚLĄSKIE",
    "county": "trzebnicki",
    "community": "Trzebnica",
    "place": "TRZEBNICA",
    "lon": "17.060279",
    "lat": "51.31076"
  },
  {
    "id": 233834,
    "ordinalNumber": "245",
    "facilityName": "SZPITAL IM.ŚW.JADWIGI ŚLĄSKIEJ W TRZEBNICY",
    "terc": "0220034",
    "address": "PRUSICKA 53-55",
    "zipCode": "55-100",
    "voivodeship": "DOLNOŚLĄSKIE",
    "county": "trzebnicki",
    "community": "Trzebnica",
    "place": "TRZEBNICA",
    "lon": "17.058252",
    "lat": "51.31991"
  },
  {
    "id": 233835,
    "ordinalNumber": "246",
    "facilityName": "GABINET ZABIEGOWY",
    "terc": "0220035",
    "address": "UJEŹDZIEC WIELKI 37B",
    "zipCode": "55-100",
    "voivodeship": "DOLNOŚLĄSKIE",
    "county": "trzebnicki",
    "community": "Trzebnica",
    "place": "UJEŹDZIEC WIELKI",
    "lon": "17.094683",
    "lat": "51.4112889"
  },
  {
    "id": 233836,
    "ordinalNumber": "247",
    "facilityName": "SAMODZIELNY PUBLICZNY ZAKŁAD OPIEKI ZDROWOTNEJ -OŚRODEK ZDROWIA W WISZNI MAŁEJ",
    "terc": "0220042",
    "address": "WROCŁAWSKA 4A",
    "zipCode": "55-114",
    "voivodeship": "DOLNOŚLĄSKIE",
    "county": "trzebnicki",
    "community": "Wisznia Mała",
    "place": "WISZNIA MAŁA",
    "lon": "17.045029",
    "lat": "51.244518"
  },
  {
    "id": 233837,
    "ordinalNumber": "248",
    "facilityName": "GMINNY OŚRODEK ZDROWIA",
    "terc": "0220052",
    "address": "SPACEROWA 6",
    "zipCode": "55-106",
    "voivodeship": "DOLNOŚLĄSKIE",
    "county": "trzebnicki",
    "community": "Zawonia",
    "place": "ZAWONIA",
    "lon": "17.195018",
    "lat": "51.315033"
  },
  {
    "id": 233838,
    "ordinalNumber": "249",
    "facilityName": "PORADNIA PODSTAWOWEJ OPIEKI ZDROWOTNEJ",
    "terc": "0220064",
    "address": "ZAMKOWA 26",
    "zipCode": "55-140",
    "voivodeship": "DOLNOŚLĄSKIE",
    "county": "trzebnicki",
    "community": "Żmigród",
    "place": "ŻMIGRÓD",
    "lon": "16.909296",
    "lat": "51.473212"
  },
  {
    "id": 233839,
    "ordinalNumber": "250",
    "facilityName": "PUNKT SZCZEPIEŃ",
    "terc": "0220064",
    "address": "LIPOWA 4",
    "zipCode": "55-140",
    "voivodeship": "DOLNOŚLĄSKIE",
    "county": "trzebnicki",
    "community": "Żmigród",
    "place": "ŻMIGRÓD",
    "lon": "16.906821",
    "lat": "51.472907"
  },
  {
    "id": 233840,
    "ordinalNumber": "251",
    "facilityName": "PUNKT SZCZEPIEŃ",
    "terc": "0220065",
    "address": "POWIDZKO 19",
    "zipCode": "55-140",
    "voivodeship": "DOLNOŚLĄSKIE",
    "county": "trzebnicki",
    "community": "Żmigród",
    "place": "POWIDZKO",
    "lon": "16.965495",
    "lat": "51.444054"
  },
  {
    "id": 233841,
    "ordinalNumber": "252",
    "facilityName": "PUNKT SZCZEPIEŃ",
    "terc": "0221011",
    "address": "WAŁBRZYSKA 19",
    "zipCode": "58-370",
    "voivodeship": "DOLNOŚLĄSKIE",
    "county": "wałbrzyski",
    "community": "Boguszów-Gorce",
    "place": "BOGUSZÓW-GORCE",
    "lon": "16.215267",
    "lat": "50.757188"
  },
  {
    "id": 233842,
    "ordinalNumber": "253",
    "facilityName": "PUNKT SZCZEPIEŃ JEDLINA",
    "terc": "0221021",
    "address": "PLAC ZDROJOWY 4",
    "zipCode": "58-330",
    "voivodeship": "DOLNOŚLĄSKIE",
    "county": "wałbrzyski",
    "community": "Jedlina-Zdrój",
    "place": "JEDLINA-ZDRÓJ",
    "lon": "16.252803",
    "lat": "50.803773"
  },
  {
    "id": 233843,
    "ordinalNumber": "254",
    "facilityName": "SZPITAL UZDROWISKOWY_SANATORIUM UZDROWISKOWE \"CIS\"",
    "terc": "0221031",
    "address": "SIENKIEWICZA 5",
    "zipCode": "58-310",
    "voivodeship": "DOLNOŚLĄSKIE",
    "county": "wałbrzyski",
    "community": "Szczawno-Zdrój",
    "place": "SZCZAWNO-ZDRÓJ",
    "lon": "16.252803",
    "lat": "50.803773"
  },
  {
    "id": 233844,
    "ordinalNumber": "255",
    "facilityName": "PRZYCHODNIA \"CZARNY BÓR\"",
    "terc": "0221042",
    "address": "SKALNIKÓW 5A",
    "zipCode": "58-379",
    "voivodeship": "DOLNOŚLĄSKIE",
    "county": "wałbrzyski",
    "community": "Czarny Bór",
    "place": "CZARNY BÓR",
    "lon": "16.130657",
    "lat": "50.767997"
  },
  {
    "id": 233845,
    "ordinalNumber": "256",
    "facilityName": "CAŁODOBOWY ODDZIAŁ TERAPII UZALEŻNIEŃ",
    "terc": "0221042",
    "address": "PARKOWA 8",
    "zipCode": "58-379",
    "voivodeship": "DOLNOŚLĄSKIE",
    "county": "wałbrzyski",
    "community": "Czarny Bór",
    "place": "CZARNY BÓR",
    "lon": "16.132846",
    "lat": "50.775257"
  },
  {
    "id": 233846,
    "ordinalNumber": "257",
    "facilityName": "CENTRUM MEDYCZNE SOLARIS",
    "terc": "0221054",
    "address": "SIENKIEWICZA 59A",
    "zipCode": "58-340",
    "voivodeship": "DOLNOŚLĄSKIE",
    "county": "wałbrzyski",
    "community": "Głuszyca",
    "place": "GŁUSZYCA",
    "lon": "16.368593",
    "lat": "50.69574"
  },
  {
    "id": 233847,
    "ordinalNumber": "258",
    "facilityName": "ANDRZEJ HAC PRO - MED",
    "terc": "0221054",
    "address": "GRUNWALDZKA 22A",
    "zipCode": "58-340",
    "voivodeship": "DOLNOŚLĄSKIE",
    "county": "wałbrzyski",
    "community": "Głuszyca",
    "place": "GŁUSZYCA",
    "lon": "16.373233",
    "lat": "50.68439"
  },
  {
    "id": 233848,
    "ordinalNumber": "259",
    "facilityName": "NIEPUBLICZNY ZAKŁAD OPIEKI ZDROWOTNEJ \"UNIMED\" SPÓŁKA Z OGRANICZONĄ ODPOWIEDZIALNOŚCIĄ",
    "terc": "0221054",
    "address": "GRUNWALDZKA 24",
    "zipCode": "58-340",
    "voivodeship": "DOLNOŚLĄSKIE",
    "county": "wałbrzyski",
    "community": "Głuszyca",
    "place": "GŁUSZYCA",
    "lon": "16.373701",
    "lat": "50.684038"
  },
  {
    "id": 233849,
    "ordinalNumber": "260",
    "facilityName": "PRAKTYKA LEKARZA RODZINNEGO",
    "terc": "0221064",
    "address": "NAD POTOKIEM 4",
    "zipCode": "58-350",
    "voivodeship": "DOLNOŚLĄSKIE",
    "county": "wałbrzyski",
    "community": "Mieroszów",
    "place": "MIEROSZÓW",
    "lon": "16.188566",
    "lat": "50.667636"
  },
  {
    "id": 233850,
    "ordinalNumber": "261",
    "facilityName": "PRAKTYKA LEKARZA RODZINNEGO NIEPUBLICZNY ZAKŁAD OPIEKI ZDROWOTNEJ URSZULA PUSKARZ",
    "terc": "0221072",
    "address": "GŁÓWNA 163",
    "zipCode": "58-312",
    "voivodeship": "DOLNOŚLĄSKIE",
    "county": "wałbrzyski",
    "community": "Stare Bogaczowice",
    "place": "STARE BOGACZOWICE",
    "lon": "16.193445",
    "lat": "50.847645"
  },
  {
    "id": 233851,
    "ordinalNumber": "262",
    "facilityName": "NIEPUBLICZNY ZAKŁAD OPIEKI ZDROWOTNEJ \"ŚRÓDMIEŚCIE - BIAŁY KAMIEŃ\" SP. Z O.O. PRZYCHODNIA W WAŁBRZYCHU",
    "terc": "0221082",
    "address": "WYSOCKIEGO 24,24A",
    "zipCode": "58-304",
    "voivodeship": "DOLNOŚLĄSKIE",
    "county": "wałbrzyski",
    "community": "Walim",
    "place": "WAŁBRZYCH",
    "lon": "16.264348",
    "lat": "50.77258"
  },
  {
    "id": 233852,
    "ordinalNumber": "263",
    "facilityName": "IZBA PRZYJĘĆ",
    "terc": "0222014",
    "address": "ALEJE JEROZOLIMSKIE 26",
    "zipCode": "56-120",
    "voivodeship": "DOLNOŚLĄSKIE",
    "county": "wołowski",
    "community": "Brzeg Dolny",
    "place": "BRZEG DOLNY",
    "lon": "16.708969",
    "lat": "51.263671"
  },
  {
    "id": 233853,
    "ordinalNumber": "264",
    "facilityName": "PUNKT SZCZEPIEŃ DOLNOBRZESKIE SPECJALISTYCZNE CENTRUM MEDYCZNE",
    "terc": "0222014",
    "address": "WILCZA 6",
    "zipCode": "56-120",
    "voivodeship": "DOLNOŚLĄSKIE",
    "county": "wołowski",
    "community": "Brzeg Dolny",
    "place": "BRZEG DOLNY",
    "lon": "16.70043",
    "lat": "51.27121"
  },
  {
    "id": 233854,
    "ordinalNumber": "265",
    "facilityName": "PUNKT SZCZEPIEŃ",
    "terc": "0222022",
    "address": "PLAC WOLNOŚCI 13",
    "zipCode": "56-160",
    "voivodeship": "DOLNOŚLĄSKIE",
    "county": "wołowski",
    "community": "Wińsko",
    "place": "WIŃSKO",
    "lon": "16.6148866",
    "lat": "51.4701251"
  },
  {
    "id": 233855,
    "ordinalNumber": "266",
    "facilityName": "PUNKT SZCZEPIEŃ",
    "terc": "0222022",
    "address": "KRZELÓW 49",
    "zipCode": "56-160",
    "voivodeship": "DOLNOŚLĄSKIE",
    "county": "wołowski",
    "community": "Wińsko",
    "place": "KRZELÓW",
    "lon": "16.510368",
    "lat": "51.437811"
  },
  {
    "id": 233856,
    "ordinalNumber": "267",
    "facilityName": "PUNKT SZCZEPIEŃ",
    "terc": "0222022",
    "address": "GŁĘBOWICE 32",
    "zipCode": "56-160",
    "voivodeship": "DOLNOŚLĄSKIE",
    "county": "wołowski",
    "community": "Wińsko",
    "place": "GŁĘBOWICE",
    "lon": "16.7410944",
    "lat": "51.4456616"
  },
  {
    "id": 233857,
    "ordinalNumber": "268",
    "facilityName": "GEMINI-MED SP. Z O.O.",
    "terc": "0222034",
    "address": "TRZEBNICKA 20/4",
    "zipCode": "56-100",
    "voivodeship": "DOLNOŚLĄSKIE",
    "county": "wołowski",
    "community": "Wołów",
    "place": "WOŁÓW",
    "lon": "16.659023",
    "lat": "51.332549"
  },
  {
    "id": 233858,
    "ordinalNumber": "269",
    "facilityName": "PUNKT SZCZEPIEŃ",
    "terc": "0222034",
    "address": "UL. INWALIDÓW WOJENNYCH 13",
    "zipCode": "56-100",
    "voivodeship": "DOLNOŚLĄSKIE",
    "county": "wołowski",
    "community": "Wołów",
    "place": "WOŁÓW",
    "lon": "16.641208",
    "lat": "51.339535"
  },
  {
    "id": 233859,
    "ordinalNumber": "270",
    "facilityName": "WIEJSKI OŚRODEK ZDROWIA W LUBIĄŻU",
    "terc": "0222035",
    "address": "WILLMANNA 23",
    "zipCode": "56-100",
    "voivodeship": "DOLNOŚLĄSKIE",
    "county": "wołowski",
    "community": "Wołów",
    "place": "LUBIĄŻ",
    "lon": "16.467009",
    "lat": "51.267066"
  },
  {
    "id": 233860,
    "ordinalNumber": "271",
    "facilityName": "PRZYCHODNIA REJONOWO-SPECJALISTYCZNA W WOŁOWIE",
    "terc": "0222035",
    "address": "PIŁSUDSKIEGO 34",
    "zipCode": "56-100",
    "voivodeship": "DOLNOŚLĄSKIE",
    "county": "wołowski",
    "community": "Wołów",
    "place": "WOŁÓW",
    "lon": "16.64301",
    "lat": "51.33606"
  },
  {
    "id": 233861,
    "ordinalNumber": "272",
    "facilityName": "PUNKT SZCZEPIEŃ",
    "terc": "0223012",
    "address": "CICHY KĄCIK 8",
    "zipCode": "55-002",
    "voivodeship": "DOLNOŚLĄSKIE",
    "county": "wrocławski",
    "community": "Czernica",
    "place": "KAMIENIEC WROCŁAWSKI",
    "lon": "17.173338",
    "lat": "51.077124"
  },
  {
    "id": 233862,
    "ordinalNumber": "273",
    "facilityName": "PUNKT SZCZEPIEŃ",
    "terc": "0223012",
    "address": "WROCŁAWSKA 54",
    "zipCode": "55-003",
    "voivodeship": "DOLNOŚLĄSKIE",
    "county": "wrocławski",
    "community": "Czernica",
    "place": "CZERNICA",
    "lon": "17.234115",
    "lat": "51.047948"
  },
  {
    "id": 233863,
    "ordinalNumber": "274",
    "facilityName": "CENTRUM ZDROWIA JOANNA NEC-BAGIŃSKA I ARKADIUSZ BAGIŃSKI SPÓŁKA JAWNA",
    "terc": "0223012",
    "address": "WOJSKA POLSKIEGO 9",
    "zipCode": "55-003",
    "voivodeship": "DOLNOŚLĄSKIE",
    "county": "wrocławski",
    "community": "Czernica",
    "place": "CZERNICA",
    "lon": "17.247421",
    "lat": "51.048373"
  },
  {
    "id": 233864,
    "ordinalNumber": "275",
    "facilityName": "PUNKT SZCZEPIEŃ",
    "terc": "0223022",
    "address": "WROCŁAWSKA 42",
    "zipCode": "55-093",
    "voivodeship": "DOLNOŚLĄSKIE",
    "county": "wrocławski",
    "community": "Długołęka",
    "place": "KIEŁCZÓW",
    "lon": "17.1692869",
    "lat": "51.142499"
  },
  {
    "id": 233865,
    "ordinalNumber": "276",
    "facilityName": "WOJEWÓDZKA PRZYCHODNIA PODSTAWOWEJ OPIEKI ZDROWOTNEJ - FILIA W DŁUGOŁĘCE",
    "terc": "0223022",
    "address": "WROCŁAWSKA 24A",
    "zipCode": "55-095",
    "voivodeship": "DOLNOŚLĄSKIE",
    "county": "wrocławski",
    "community": "Długołęka",
    "place": "DŁUGOŁEKA",
    "lon": "17.184745",
    "lat": "51.177499"
  },